hospital_name,facility_type,district,latitude,longitude,ownership_type,ownership_encoded,tier,tier_encoded,specialties,opd_fee_npr,emergency_available,bed_capacity,rating,ambulance_service,parking_available,phone
Basic Health Centre 07,clinic,Morang,26.6672471932013,87.7077340313513,Private,2,Standard,1,Gastroenterology,620,False,0,3.6,True,True,
Kolhabi Primary Health Post,clinic,Kathmandu,27.0766931887627,85.1810199647125,Private,2,Standard,1,Dermatology,1211,False,0,3.3,False,True,
Pokhara Healthy Homes,clinic,Pokhara,28.243412368638,83.9886461261559,Private,2,Budget,0,Infectious Disease,308,False,0,2.5,False,True,
Nepal Pariwar Niyojan Sangh Palhinandan-1Rampurawa,hospital,Biratnagar,27.4371184618041,83.7009200330044,Private,2,Standard,1,"Urology, Pulmonology, Cardiology, General Surgery",966,False,152,3.6,True,True,
Aadharbhut Health Post,clinic,Pokhara,27.6214313996287,84.1251067787629,Private,2,Standard,1,"General Medicine, Infectious Disease",984,False,0,3.9,True,False,
Partappur Health Post,hospital,Sarlahi,28.6108238741556,81.0728153642746,Private,2,Premium,2,"General Medicine, Orthopedics, Dermatology, Neurology, General Surgery, Gastroenterology",1066,True,446,4.1,True,True,
Khalidada Municipal Health Center,clinic,Sunsari,29.5998366484686,80.7453932482456,Private,2,Standard,1,"Gastroenterology, Infectious Disease",1264,False,0,3.4,True,False,
Madi Healthpost,hospital,Tanahu,,,Private,2,Premium,2,"General Surgery, Orthopedics, Infectious Disease, Urology, Cardiology, Dermatology",1321,True,435,3.7,True,True,
mhf,hospital,Kathmandu,,,Private,2,Premium,2,"Neurology, Infectious Disease, General Surgery, Endocrinology, General Medicine, Pulmonology",2933,True,245,3.8,False,True,
Dolakha Samudayik Hospital,hospital,Butwal,27.6658832305478,86.0461969927975,Private,2,Premium,2,"Endocrinology, Orthopedics, Infectious Disease, Pulmonology, Urology, General Surgery",2144,True,419,3.5,True,True,
Bharta Community Health are Center,clinic,Kathmandu,29.1065972697958,81.556109363375,Private,2,Standard,1,"Gastroenterology, Dermatology, Infectious Disease",878,True,0,4.2,False,True,
चाबेनेटा सामुदायिक सहरी स्वास्थ्य केन्द्र शिनपा -११,hospital,Pokhara,27.7930850652714,82.8675689236312,Private,2,Premium,2,"Pulmonology, Dermatology, Urology, Orthopedics, Cardiology, General Surgery",2887,True,182,3.6,True,True,
my life healthj center,clinic,Kathmandu,27.7403189731373,85.312371092964,Private,2,Standard,1,Gastroenterology,1474,False,0,3.8,False,False,
Shreemati Raj Kumari Clinice,clinic,Hetauda,27.0304564315627,85.0020141965202,Private,2,Standard,1,Gastroenterology,621,False,0,3.4,False,True,
विष्णुपुर स्वास्थ्य केन्द्र,clinic,Kathmandu,26.7901782806198,86.4223716942639,Private,2,Budget,0,"General Medicine, Dermatology, Infectious Disease",508,False,0,3.5,False,False,
chisapani aaspatal,hospital,Bhaktapur,27.5568276294618,83.7746512766322,Private,2,Premium,2,"Orthopedics, Pulmonology, Cardiology, General Medicine, Infectious Disease, Gastroenterology",2745,True,163,4.5,True,True,
अाधारभूत स्वास्थ्य सेवा केन्द्र,hospital,Morang,27.6222476293598,83.65348818405,Private,2,Premium,2,"Gastroenterology, Urology, Neurology, Infectious Disease, Cardiology, Dermatology",1836,True,309,4.5,False,True,
Lagadigadiyani Health Care Center,clinic,Hetauda,26.5988871569461,86.2312696663258,Private,2,Budget,0,"General Medicine, Infectious Disease",256,False,0,2.6,True,False,
Paterwa Health Post,clinic,Pokhara,26.9275474477118,85.1610717895308,Private,2,Standard,1,"Gastroenterology, Dermatology",623,False,0,3.3,True,True,
ओम हस्पिटल एण्ड रिसर्च सेन्टर प्रा. लि,hospital,Kathmandu,27.721420296052,85.3448028556372,Private,2,Premium,2,"Infectious Disease, Cardiology, General Surgery, Gastroenterology, General Medicine, Endocrinology",1756,True,364,4.7,True,True,
हरिहरपुर स्वास्थ्य चौकी,clinic,Itahari,27.6265334640904,82.9702834473285,Private,2,Budget,0,"Dermatology, Infectious Disease",492,False,0,2.8,False,False,
Kolmuda GauGhar Clinic,clinic,Palpa,28.9245589290354,80.5273853949396,Private,2,Standard,1,"Infectious Disease, General Medicine",796,False,0,3.2,False,False,
na,hospital,Kathmandu,27.9466380948299,83.1540526510943,Private,2,Standard,1,"Infectious Disease, Cardiology, Pulmonology, Orthopedics",541,True,186,3.4,True,False,
Rahul Medisales,clinic,Dang,27.5161356688492,83.4528427726157,Private,2,Budget,0,Dermatology,467,False,0,3.0,False,True,
Kiswari bhawan,clinic,Makwanpur,28.9649779748806,81.5645577350406,Private,2,Standard,1,"Dermatology, Infectious Disease, General Medicine",656,False,0,3.5,False,True,
Sahid Memorial Hospital,hospital,Birgunj,,,Private,2,Premium,2,"Pulmonology, Infectious Disease, Gastroenterology, Urology, Dermatology, General Medicine",1241,True,139,4.1,True,True,
Hospital Building,hospital,Lalitpur,26.8153162787895,85.952858130714,Private,2,Premium,2,"Urology, Infectious Disease, Cardiology, Pulmonology, Dermatology, General Surgery",1760,True,308,4.0,True,True,
Janakpur Trauma Hospital,hospital,Myagdi,26.7294244862185,85.9125085708461,Private,2,Premium,2,"Infectious Disease, Endocrinology, Urology, General Surgery, General Medicine, Dermatology",1624,True,202,4.1,False,False,
पुष्पा आयु मेडिकल,clinic,Birgunj,,,Private,2,Standard,1,"Infectious Disease, General Medicine",883,False,0,3.5,False,True,
महादेवपुरी स्वास्थ्य चौकी,clinic,Kathmandu,28.1582049584613,81.7606811935319,Private,2,Standard,1,"Infectious Disease, Dermatology, General Medicine",810,False,0,3.0,False,False,
Sauraha Eye Care Center,hospital,Lalitpur,27.5824077730238,84.5023170643664,Private,2,Premium,2,"Urology, Pulmonology, Infectious Disease, General Medicine, Orthopedics, Neurology",1602,False,287,4.6,True,True,
Syaule Health Post,clinic,Gorkha,27.8124163323795,85.6930485528152,Private,2,Budget,0,Dermatology,448,False,0,3.2,False,False,
भवानीपुर स्वास्थ्य केन्द्र,clinic,Chitwan,26.7208032797094,86.4009849330405,Private,2,Budget,0,General Medicine,214,False,0,2.6,True,False,
Bharmapur Health Post Bharmarpura,clinic,Dang,26.7269954944979,85.852241429743,Private,2,Budget,0,General Medicine,273,False,0,2.9,False,False,
साइनिङ अस्पताल,hospital,Dhanusha,28.0878028391359,81.6142043342706,Private,2,Standard,1,"Infectious Disease, Cardiology, Endocrinology, Pulmonology",645,True,95,3.5,True,False,
Rashmi Medical Hall,clinic,Kathmandu,27.6701024291483,85.3548217445004,Private,2,Standard,1,"General Medicine, Dermatology, Infectious Disease",1302,False,0,3.4,False,True,
Janapriya Hospital,hospital,Pokhara,28.2066294762085,83.9769178319593,Private,2,Premium,2,"Cardiology, Endocrinology, Neurology, General Surgery, Dermatology, Infectious Disease",2207,True,405,3.9,False,True,
Subh Ultrasound Clinic,clinic,Kathmandu,27.7019463689519,85.3222684442313,Private,2,Budget,0,"Infectious Disease, Gastroenterology, General Medicine",415,False,0,2.5,True,False,
Ãkha Hospital,doctors,Hetauda,27.8745828965607,82.509634919851,Private,2,Standard,1,General Medicine,549,False,0,3.9,False,True,
Musarniya BHCC,clinic,Mustang,26.5205008557529,86.7104476480537,Private,2,Budget,0,"Infectious Disease, Dermatology, Gastroenterology",356,False,0,3.1,False,True,
hospital,hospital,Dharan,,,Private,2,Standard,1,"General Medicine, Cardiology, Urology, Dermatology",1410,True,155,3.1,True,False,
Primary Health Post Gachi Tole,clinic,Itahari,26.8011588252342,85.8503112450802,Private,2,Budget,0,General Medicine,345,False,0,2.7,False,True,
Niwaran Poly Clinic,clinic,Kathmandu,27.6736700185961,85.3735561362836,Private,2,Standard,1,"General Medicine, Gastroenterology, Infectious Disease",720,False,0,3.7,True,True,
Sorek Health Post,hospital,Syangja,28.009882068845,83.7551105457638,Private,2,Premium,2,"Pulmonology, Dermatology, Urology, Endocrinology, Neurology, Infectious Disease",1374,True,136,4.0,True,True,
Purainiya Health Post,clinic,Kaski,26.9943046964422,84.9643554790281,Private,2,Standard,1,General Medicine,1338,False,0,4.0,False,True,
Orchid Home Care Center,clinic,Kathmandu,,,Private,2,Budget,0,Gastroenterology,578,False,0,2.5,False,False,
Parsurampur Health Care Center,clinic,Gorkha,26.9344303313218,85.0418108860549,Private,2,Budget,0,"Infectious Disease, Gastroenterology",450,False,0,3.3,False,True,
Arusara urban health center,clinic,Itahari,28.0204849249024,84.6584932943421,Private,2,Budget,0,Gastroenterology,201,False,0,3.1,False,False,
आधारभुर स्वास्थ्य केन्द्र( वार्ड न १),clinic,Makwanpur,27.5788870384148,83.5745224418904,Private,2,Standard,1,Gastroenterology,625,False,0,4.1,True,False,
Kotbhairav Health Post,clinic,Kathmandu,29.4668807210355,81.0243300777294,Private,2,Budget,0,Gastroenterology,480,True,0,3.1,False,True,
आयुर्वेदिक अस्पताल,hospital,Pokhara,26.9856161832506,85.4384696177728,Private,2,Premium,2,"Urology, Dermatology, Gastroenterology, Infectious Disease, Orthopedics, Endocrinology",1714,True,369,4.5,True,True,
जैसपुर स्वास्थ चौकि,clinic,Biratnagar,28.0285257684358,81.6052614303177,Private,2,Budget,0,"Gastroenterology, General Medicine, Dermatology",234,False,0,2.9,False,False,
Jagadamba Pharmacy,clinic,Kathmandu,27.5175974727626,83.4523016369468,Private,2,Standard,1,"General Medicine, Gastroenterology",1391,False,0,3.4,True,False,
राप्तिसोनारी अस्पताल,hospital,Pokhara,28.0242785742787,81.8946837692143,Private,2,Standard,1,"Urology, Pulmonology, Cardiology, Dermatology",545,False,199,3.7,False,True,
Community Health Post Bhagawanpur,clinic,Lalitpur,26.7255572437323,85.8412627291473,Private,2,Standard,1,"Dermatology, Infectious Disease",927,False,0,3.2,False,True,
MHP Ismarajasthal HP,hospital,Biratnagar,28.1762299897788,83.1956599993524,Private,2,Premium,2,"Pulmonology, Urology, Orthopedics, Cardiology, Dermatology, General Medicine",1985,True,457,4.9,True,False,
Adharbhut Health Post Gundi,clinic,Morang,27.5015258439797,83.3319167202553,Private,2,Standard,1,"Dermatology, General Medicine, Gastroenterology",1086,False,0,3.8,False,True,
Lumbini Medical College,hospital,Dharan,,,Private,2,Premium,2,"Pulmonology, Cardiology, Orthopedics, Urology, General Medicine, Infectious Disease",1634,True,429,3.6,False,True,
"Aadharbhut swasthya sewa, roshani dada",clinic,Dharan,28.9277017236303,81.5915718545976,Private,2,Budget,0,Infectious Disease,489,False,0,3.1,False,False,
Eye checkup Clinnic,clinic,Kathmandu,27.7385818237046,85.312379055772,Private,2,Budget,0,"General Medicine, Gastroenterology",431,False,0,3.0,True,True,
Balkumari Health Centre,clinic,Kathmandu,27.6766071212871,85.3856455228688,Private,2,Standard,1,Dermatology,1421,True,0,3.9,False,True,
हवमा स्वास्थ्य चौकी,clinic,Bhaktapur,28.3906325350728,82.625274673518,Private,2,Budget,0,Infectious Disease,372,False,0,2.9,False,True,
MHP Pipaldhara HP,hospital,Biratnagar,28.0857499434107,83.1393699874862,Private,2,Standard,1,"Dermatology, Endocrinology, General Medicine, Orthopedics",1300,True,69,3.9,True,True,
कँडेल गाउँ स्वास्थ्य चौकी,clinic,Parbat,29.5477122748416,81.0812453795723,Private,2,Budget,0,"Infectious Disease, General Medicine",393,False,0,2.7,False,True,
स्वाथ्य चौकी,clinic,Morang,27.8146123910109,82.5374027401413,Private,2,Budget,0,"Dermatology, Infectious Disease",443,False,0,3.2,False,False,
Spark Ortho Neuro Center,clinic,Kathmandu,27.6756166317891,85.3746471248006,Private,2,Standard,1,"Gastroenterology, Infectious Disease, Dermatology",1354,False,0,3.3,False,True,
Sreesiya Health Post,clinic,Chitwan,27.025890389809,84.8508986244046,Private,2,Budget,0,Dermatology,568,True,0,2.7,False,True,
Shree Gadhmai Health Clinic,clinic,Lalitpur,27.0429057370702,85.0322036324564,Private,2,Budget,0,Infectious Disease,510,False,0,3.3,True,False,
कल्पना स्वास्थ्य सेवा केन्द्र,hospital,Kathmandu,27.7670426597493,85.3006200838099,Private,2,Premium,2,"Urology, General Medicine, Infectious Disease, Dermatology, Pulmonology, Orthopedics",1271,True,449,4.9,True,True,
भुटनेटा आधारभूत स्वास्थ्य केन्द्र,clinic,Dhanusha,28.0141109904531,82.6815156512507,Private,2,Standard,1,"Infectious Disease, General Medicine",1280,False,0,3.2,False,False,
MHP Purkhot Daha HP,hospital,Lalitpur,28.1433899446021,83.0746899420004,Private,2,Premium,2,"Neurology, Infectious Disease, Urology, Pulmonology, General Medicine, General Surgery",1283,False,213,3.9,True,True,
Bheri Ultrasound,clinic,Dharan,28.0531623611575,81.6205935237836,Private,2,Standard,1,"Dermatology, Gastroenterology",1016,False,0,3.3,True,False,081-521343
Everest Medicare Pvt Ltd,clinic,Dolpa,27.5144954980362,83.4533332815894,Private,2,Budget,0,Gastroenterology,525,False,0,2.7,False,False,
Manoja Health Cilinik 1 Parsagadhi MP,clinic,Morang,27.1776618458479,84.8665694305778,Private,2,Standard,1,"Infectious Disease, Dermatology",971,False,0,3.7,False,True,
जयरिथिबिनगर स्वास्थ्य चौकि,clinic,Itahari,29.5349559402208,81.1042937692808,Private,2,Budget,0,"Dermatology, Gastroenterology",589,False,0,2.7,False,False,
"Nagar Swasthya Kendra, Narkatiya",clinic,Sunsari,27.6009583496703,84.4920426950944,Private,2,Budget,0,Gastroenterology,430,False,0,2.8,False,False,
Laliguras Hospital,hospital,Syangja,,,Private,2,Premium,2,"Endocrinology, Cardiology, Orthopedics, General Medicine, Neurology, Gastroenterology",2366,True,223,4.4,True,True,
Manikhel Hospital,hospital,Bardiya,27.5139348325329,85.3904652848316,Private,2,Standard,1,"General Medicine, Pulmonology, Orthopedics, General Surgery",959,True,184,3.5,True,False,
Deep Health Clinic,clinic,Pokhara,27.0134906213492,84.8743895786006,Private,2,Standard,1,"General Medicine, Gastroenterology",652,False,0,4.0,False,True,
कान्तिपुर अस्पताल,hospital,Kathmandu,27.6858799369489,85.3452222860719,Private,2,Premium,2,"Endocrinology, General Surgery, Infectious Disease, Urology, Neurology, Dermatology",2774,True,486,3.6,True,True,
Bhirgaun Health Post,clinic,Kathmandu,27.0211897346902,87.3521812424437,Private,2,Standard,1,Infectious Disease,1245,False,0,3.1,False,True,
Bhim Hospital,hospital,Birgunj,27.505903125274,83.4544143794607,Private,2,Standard,1,"Urology, General Surgery, Pulmonology, Endocrinology",833,True,64,3.4,True,True,
एलिना स्वास्थ क्लिनिक,clinic,Biratnagar,28.097253267326,82.4306089956266,Private,2,Standard,1,"General Medicine, Gastroenterology",591,False,0,3.1,False,True,
Sairam Homiyo Pharmacy,clinic,Bhaktapur,27.516386036297,83.4516802864645,Private,2,Standard,1,"General Medicine, Dermatology",1319,True,0,3.5,False,True,
हर्मिचौर स्वास्थ चौकी,clinic,Myagdi,27.9792823387484,83.570686296265,Private,2,Budget,0,"Infectious Disease, Gastroenterology",519,False,0,2.7,False,False,
Chauthe Hospital and Research Centre,hospital,Lamjung,,,Private,2,Premium,2,"Pulmonology, General Surgery, Gastroenterology, Dermatology, Orthopedics, Endocrinology",2360,True,483,3.7,True,True,
joshipur physical health center,hospital,Birgunj,28.5753450382217,81.0226463210199,Private,2,Premium,2,"Pulmonology, Gastroenterology, Orthopedics, Urology, Cardiology, General Medicine",2277,True,497,4.3,True,True,
Nava Nepal BHCC,clinic,Rupandehi,27.6767728315128,84.1776054881857,Private,2,Budget,0,"General Medicine, Dermatology",409,False,0,2.7,False,False,
Jasmine Pharmacy And Clinic Pvt.Ltd,clinic,Kathmandu,27.7032138803498,85.3204545165655,Private,2,Budget,0,"Gastroenterology, Dermatology, Infectious Disease",398,False,0,3.4,False,False,
Suspa Chemawati Health Post,clinic,Dharan,27.7019299404217,86.0585879602589,Private,2,Budget,0,"Dermatology, General Medicine",319,False,0,3.5,True,True,
Phoksing Health Post,clinic,Baglung,28.0724563287965,83.5212859573503,Private,2,Budget,0,General Medicine,402,False,0,3.0,False,False,
"Dhirapur Health Post, Dhirapur",clinic,Nepalgunj,26.6470660849304,85.8507537257487,Private,2,Budget,0,"Gastroenterology, General Medicine",373,True,0,3.4,False,False,
हाम्रो सहयात्री अस्पताल,hospital,Kathmandu,27.6760050491821,85.353550042151,Private,2,Premium,2,"General Medicine, Infectious Disease, Dermatology, Orthopedics, Gastroenterology, Neurology",2107,True,274,4.0,True,True,
Health Post,hospital,Biratnagar,29.3181943920976,81.7244946735132,Private,2,Standard,1,"Pulmonology, General Surgery, Infectious Disease, Gastroenterology",546,True,200,3.9,True,False,
Sangachok Basic Health Service and Delivery Service center.,clinic,Pokhara,27.6970276167126,85.7116030689562,Private,2,Standard,1,"General Medicine, Infectious Disease, Gastroenterology",1481,False,0,3.3,False,False,
Dhansingpur Swasthya Chauki,hospital,Itahari,,,Private,2,Premium,2,"Urology, Pulmonology, Cardiology, Neurology, Endocrinology, Dermatology",2373,True,242,4.2,True,True,
Elite Pathology Clinic & dental House,clinic,Biratnagar,,,Private,2,Budget,0,"General Medicine, Dermatology",426,False,0,3.0,False,False,
Bahakha Pharmacy and Dental Optical,clinic,Kathmandu,27.6828036946652,85.3894911400448,Private,2,Standard,1,"General Medicine, Infectious Disease, Gastroenterology",1253,True,0,3.4,False,True,
Muktinath Hospital,hospital,Itahari,28.2677390823995,83.5984622470014,Private,2,Premium,2,"Dermatology, Neurology, Urology, Infectious Disease, General Surgery, Endocrinology",1568,True,174,3.8,True,True,
Pokhara University Teaching Hospital,hospital,Tanahu,,,Private,2,Standard,1,"General Medicine, General Surgery, Pulmonology, Infectious Disease",1161,True,77,3.3,True,False,
Sarswati Health Clinic,clinic,Dharan,27.045134233667,85.032083687422,Private,2,Budget,0,Dermatology,245,False,0,3.2,False,False,
Sworgadhari Health Post,clinic,Pokhara,28.1220293349166,82.6711184870971,Private,2,Budget,0,"General Medicine, Infectious Disease",284,False,0,3.2,False,True,
Aadharbhut Health Ekai,clinic,Dolpa,26.982162671505,84.9544036453901,Private,2,Budget,0,"Gastroenterology, Infectious Disease",562,False,0,2.8,False,False,
Surya Hospital,hospital,Hetauda,27.0028666428958,84.870529125456,Private,2,Premium,2,"Urology, Dermatology, General Surgery, Pulmonology, Cardiology, Neurology",1050,True,265,4.6,True,True,
Sambanda Polyclinic and Dygnostic Center,clinic,Kathmandu,28.7936620999359,81.3849645630739,Private,2,Budget,0,General Medicine,492,False,0,2.9,False,False,
"Katahariya-7,Health Post, Katahariya MP",clinic,Kathmandu,26.9743118457166,85.2771389364406,Private,2,Budget,0,General Medicine,522,True,0,3.0,False,True,
Deurali Urban Health Center,clinic,Lalitpur,27.7786539425775,85.7403700959238,Private,2,Standard,1,"Gastroenterology, General Medicine",1315,True,0,4.0,False,True,
Sangutar BHCC,clinic,Kaski,27.3532582749244,86.2143784550505,Private,2,Budget,0,General Medicine,595,False,0,3.1,False,False,
Siddhartha Medico & Pathology Clinic,clinic,Kathmandu,27.7143116877896,85.3568113568567,Private,2,Budget,0,Dermatology,562,False,0,2.7,True,False,
Urban Health Center Jitpur,clinic,Dang,27.7208453813134,85.7507730435905,Private,2,Standard,1,"General Medicine, Dermatology, Gastroenterology",816,True,0,3.6,False,True,
Laxmi bazar urban health center,clinic,Butwal,27.9684993555919,84.62075578696,Private,2,Standard,1,"General Medicine, Gastroenterology",1074,True,0,4.1,False,True,
Golbajar Health Care Pvt. Ltd.,clinic,Kathmandu,26.7896025276908,86.337642052568,Private,2,Budget,0,Dermatology,530,False,0,2.9,True,False,
Gauro Medical,clinic,Dharan,27.2671679988863,84.6844558203268,Private,2,Standard,1,Dermatology,626,False,0,3.9,False,True,
pachnagar health post,hospital,Dolpa,27.5603332766451,83.7515792499568,Private,2,Premium,2,"General Surgery, Pulmonology, Infectious Disease, General Medicine, Urology, Dermatology",2318,True,352,4.5,True,True,
Om Sai Manokamana Polyclinic Pvt. Ltd.,clinic,Hetauda,26.7361676435026,86.932755836783,Private,2,Budget,0,Gastroenterology,486,True,0,3.1,False,False,
Landseed Health Care Chitwan,clinic,Mustang,27.7679053252239,84.470587118446,Private,2,Standard,1,Infectious Disease,587,False,0,3.9,False,False,
Januni BHCC,clinic,Gorkha,26.5687325897272,86.7155196214831,Private,2,Standard,1,"Infectious Disease, Dermatology",697,False,0,4.0,True,True,
Biruwa Guthi Health Post 4 Parsagadi MP,clinic,Kathmandu,27.1491183642379,84.8964766478341,Private,2,Budget,0,"Gastroenterology, Dermatology",516,False,0,3.2,False,False,
Waling Hospital,hospital,Dhanusha,27.9785988783637,83.7522155202267,Private,2,Standard,1,"Dermatology, Orthopedics, Pulmonology, Gastroenterology",1054,True,77,3.4,True,True,
B.P. Koirala Memorial Cancer Hospital,hospital,Sunsari,,,Private,2,Premium,2,"Pulmonology, Neurology, Urology, General Medicine, Endocrinology, General Surgery",2181,True,119,4.9,True,True,
Jana Swasthya Sewa Kendra,hospital,Hetauda,29.3521432792452,81.8067147733989,Private,2,Standard,1,"Neurology, Gastroenterology, Dermatology, General Medicine",1275,False,151,4.1,True,False,
Shree Basic Health Care Center,clinic,Pokhara,28.1027448388282,83.9138128298989,Private,2,Standard,1,"General Medicine, Infectious Disease",554,False,0,3.5,False,True,
Urban Health Promotion and Care Center,clinic,Biratnagar,26.683355199444,85.8584278610183,Private,2,Budget,0,"Infectious Disease, Dermatology, General Medicine",491,True,0,3.0,True,False,
Ratu Healthpost,hospital,Morang,28.6454075228305,81.6825000813284,Government,0,Standard,1,"Dermatology, Urology, Neurology, Cardiology",367,True,116,3.5,True,True,9848260825
Janaki Health Care Center 8 Lalbandhi MP,clinic,Lalitpur,27.0530528690521,85.6328887838918,Private,2,Budget,0,General Medicine,296,False,0,2.6,True,False,
Ayurveda Hospital,hospital,Butwal,,,Private,2,Premium,2,"Urology, Gastroenterology, Neurology, Infectious Disease, Dermatology, Pulmonology",2537,True,470,4.0,True,True,
Krisnanagar Swosth Chauki,clinic,Nepalgunj,27.5122971762909,82.7951714922555,Private,2,Budget,0,Dermatology,443,False,0,2.9,False,False,
Kosh Haat Health Unit,clinic,Myagdi,27.3074237652577,86.3777088908419,Private,2,Standard,1,Dermatology,1014,False,0,3.3,False,False,
क्लिनिक स्वास्थ्य सेवा केन्द्र,clinic,Kathmandu,27.7267651842487,85.3050103570541,Private,2,Budget,0,"Gastroenterology, Dermatology",209,False,0,2.6,False,False,
Aadharbhut Swasthya Kendra,clinic,Lamjung,26.7807883697707,85.2826766922292,Private,2,Budget,0,General Medicine,261,False,0,2.8,False,False,
Shree Karna Clinic Private Limited,clinic,Biratnagar,26.658839389947,86.210650184519,Private,2,Budget,0,Infectious Disease,537,False,0,2.6,False,False,
Kharbang Health Care Center,clinic,Hetauda,28.1910875837061,83.276469089658,Private,2,Standard,1,"Gastroenterology, Infectious Disease",1458,False,0,3.9,False,False,
Dubarkot Hathaletwa Health Service Center,clinic,Bhaktapur,26.6988646539811,86.1516254929233,Private,2,Standard,1,"Infectious Disease, Gastroenterology, General Medicine",1044,False,0,3.7,False,False,
Siddhi Ultra Sound Clinic,clinic,Kathmandu,27.7059725323223,85.3179834476909,Private,2,Standard,1,Dermatology,684,False,0,4.1,False,True,
Shivamandir Healthpost Kawasoti,clinic,Baglung,27.6560611487711,84.1113662410716,Private,2,Budget,0,"Infectious Disease, Dermatology",209,False,0,2.6,False,False,
सामखुसी सामुदायिक क्लिनिक,clinic,Kathmandu,27.7245403756893,85.3137910711806,Private,2,Standard,1,"General Medicine, Gastroenterology",781,True,0,3.1,True,True,
छ्याला आधारभुत स्वास्थ्य केन्द्र,clinic,Lamjung,29.530344971466,81.1444782894753,Private,2,Budget,0,"General Medicine, Dermatology",305,True,0,3.2,False,True,
बाराकोट स्वास्थ्य चौकी बाराकोट,clinic,Biratnagar,29.5484520616156,80.3727918359212,Private,2,Budget,0,Infectious Disease,325,False,0,3.1,False,True,
आधारभुत स्वास्थ्य केन्द्र चौगुर्जी,clinic,Morang,28.2089786722109,81.3309478909864,Private,2,Budget,0,Gastroenterology,561,False,0,3.2,True,False,
Dulatthai Basic Health Service Center,clinic,Chitwan,28.813817559583,81.3721958232365,Private,2,Budget,0,Dermatology,496,False,0,2.8,True,True,
Siddhi Medical,clinic,Lalitpur,28.05794147089,81.619250156162,Private,2,Budget,0,Gastroenterology,427,False,0,2.7,True,False,
राज पशुपति क्लिनिक,clinic,Banke,27.9896870466148,82.5383680839298,Private,2,Standard,1,"Gastroenterology, Infectious Disease, Dermatology",586,False,0,4.1,False,True,
सहरी स्वास्थ्य केन्द्र,clinic,Hetauda,26.8050342819855,86.3993969814843,Private,2,Standard,1,General Medicine,1326,False,0,4.2,False,False,
Satupasal Urban Health Care Unit,clinic,Bardiya,,,Private,2,Budget,0,"Gastroenterology, General Medicine",473,False,0,2.9,False,True,
Jamdah BHCC,clinic,Hetauda,26.8269789426841,86.3518416670962,Private,2,Standard,1,Gastroenterology,1121,True,0,3.1,False,True,
Relief Medical Hall,clinic,Kathmandu,27.6792603289176,85.4442478503635,Private,2,Standard,1,"Gastroenterology, Dermatology, Infectious Disease",828,False,0,3.6,False,True,
साडी स्वास्थ्य चौकी,clinic,Kathmandu,27.5744835217636,83.2302394570757,Private,2,Budget,0,Gastroenterology,405,False,0,3.0,False,False,
Ishan Children and Women's Hospital (P) Ltd.,hospital,Birgunj,,,Private,2,Premium,2,"General Medicine, General Surgery, Dermatology, Cardiology, Pulmonology, Gastroenterology",2206,True,219,4.8,True,True,
OP Clinic,clinic,Kathmandu,26.693286078324,86.2373931495082,Private,2,Budget,0,"Gastroenterology, General Medicine, Infectious Disease",223,True,0,2.9,False,False,
Marie Stopes Centre - Putalisadak,clinic,Kathmandu,,,Community/NGO,1,Standard,1,Gastroenterology,1003,False,0,3.4,False,False,
Soni Helth Clinik,clinic,Parbat,27.0349940586648,85.0042037172672,Private,2,Budget,0,Dermatology,211,False,0,3.1,False,True,
Padampur Health Post,hospital,Lamjung,27.6839786698521,84.5067581319439,Private,2,Premium,2,"Orthopedics, Pulmonology, Neurology, Infectious Disease, Cardiology, General Surgery",1696,True,211,3.5,False,True,
Pokhara Neuro Spine & ENT Centre,clinic,Pokhara,28.2175983699775,83.9879165653036,Private,2,Budget,0,Infectious Disease,423,False,0,3.1,False,True,061-521918
Chiutaha Health Post,clinic,Syangja,26.9452876619596,85.1327437228324,Private,2,Budget,0,Infectious Disease,292,False,0,3.0,False,False,
divya health clinic,clinic,Biratnagar,27.5014457968044,83.4488372287271,Private,2,Budget,0,General Medicine,412,False,0,2.8,False,True,
Lagma Basic Health Care Center,clinic,Kathmandu,26.6748183986998,86.1429538273571,Private,2,Budget,0,Dermatology,212,True,0,2.8,False,False,
Rural Medical Hall,clinic,Lamjung,28.052215289918,81.6200624463985,Private,2,Budget,0,General Medicine,470,True,0,3.4,False,False,081-521885
BP Smriti Hospital,hospital,Myagdi,,,Private,2,Standard,1,"Orthopedics, Dermatology, General Medicine, Gastroenterology",824,True,112,3.2,True,True,
Sisne Health Post,clinic,Kathmandu,28.7436713397616,82.6717605408802,Private,2,Budget,0,"Gastroenterology, Infectious Disease, Dermatology",395,True,0,3.2,False,True,
Sahara Health Care,clinic,Nepalgunj,,,Private,2,Budget,0,Infectious Disease,331,False,0,3.3,False,False,
Rescue Tent,hospital,Kathmandu,,,Private,2,Premium,2,"General Medicine, Neurology, Gastroenterology, Endocrinology, Infectious Disease, Dermatology",1186,True,366,4.0,True,True,
सिकलसेल एनेमिया ल्यब,clinic,Banke,28.1994609373384,81.6558074915771,Private,2,Budget,0,"Dermatology, Gastroenterology",258,False,0,2.6,False,True,
Padmashree Homeo Clinic,clinic,Pokhara,28.2179172175742,83.986654921238,Private,2,Budget,0,"Dermatology, Gastroenterology, General Medicine",250,False,0,3.2,False,False,
Health Service,clinic,Banke,28.2964975598259,83.7520354769465,Private,2,Budget,0,Infectious Disease,477,False,0,2.7,True,False,
Barampuri Sowath Sewa Kendra,clinic,Lalitpur,27.0539378303891,85.00086202011,Private,2,Budget,0,"Gastroenterology, Dermatology, Infectious Disease",286,False,0,3.4,False,True,
Diamond Medical Hall,clinic,Pokhara,28.2894807334032,83.9541774771925,Private,2,Standard,1,"Infectious Disease, General Medicine, Gastroenterology",792,False,0,4.2,False,True,
Kutumsang Health Centre,hospital,Nepalgunj,,,Private,2,Premium,2,"Urology, Dermatology, Endocrinology, Orthopedics, Neurology, Gastroenterology",1294,True,433,4.5,True,True,
Maruti Children Hospital,hospital,Itahari,,,Private,2,Standard,1,"Endocrinology, Cardiology, Neurology, Infectious Disease",687,True,128,3.4,True,True,
Methinkot Hospital,hospital,Biratnagar,,,Private,2,Premium,2,"General Surgery, Cardiology, Endocrinology, General Medicine, Pulmonology, Dermatology",1523,True,169,3.7,True,True,
Palebat Basic Health Care Center,clinic,Lamjung,28.7139493625654,82.0483660477197,Private,2,Standard,1,"General Medicine, Dermatology, Infectious Disease",1286,False,0,3.7,True,True,
Sun health post,hospital,Butwal,29.0086510431759,82.7852533538683,Private,2,Premium,2,"Neurology, Pulmonology, Cardiology, Urology, Infectious Disease, Dermatology",1183,True,387,3.6,True,True,
समुद्रिक स्वस्थ्य एकाई,clinic,Pokhara,27.5955225178242,84.8549085268828,Government,0,Budget,0,"General Medicine, Gastroenterology",178,False,0,3.3,True,False,
सामुदायिक स्वास्थ्य इकाई,clinic,Hetauda,28.9140969727703,82.8107117921962,Private,2,Budget,0,Dermatology,357,False,0,3.4,False,False,
Ayurvedic Hospital,hospital,Dhanusha,,,Private,2,Standard,1,"Gastroenterology, Orthopedics, Pulmonology, Endocrinology",1475,True,95,3.5,True,False,
लमही सर्पदंश उपचार केन्द्र,hospital,Bhaktapur,27.8701502947054,82.5276858512494,Private,2,Premium,2,"Endocrinology, Dermatology, Pulmonology, General Medicine, Infectious Disease, General Surgery",1834,True,425,4.8,True,True,
Manara Swasthya Chauki,clinic,Birgunj,26.7213363687513,85.7447967466279,Private,2,Standard,1,"Gastroenterology, Infectious Disease",1194,False,0,3.4,False,True,
Sahri Sawasth Kendra,clinic,Dolpa,26.793163243978,85.268035854318,Private,2,Budget,0,"Dermatology, Gastroenterology, Infectious Disease",286,False,0,3.4,False,True,
सुरुची होम केयर,hospital,Kathmandu,27.6937635359787,85.3377248413213,Private,2,Standard,1,"Urology, Neurology, General Medicine, General Surgery",560,True,73,3.3,True,False,
Itiyahi Swashtha Chowki,clinic,Morang,27.0072554912165,84.9100424228443,Private,2,Budget,0,"General Medicine, Infectious Disease",514,False,0,3.3,False,False,
सहरी स्वास्थ केन्द्र द न पा सेरा,clinic,Butwal,29.5941262254746,80.4107431656531,Private,2,Standard,1,"Dermatology, Gastroenterology",1484,False,0,3.2,True,True,
Bhatauliya Health Post,clinic,Hetauda,26.6801509654988,85.773071252965,Private,2,Budget,0,"Gastroenterology, General Medicine, Infectious Disease",366,False,0,2.9,False,False,
Janakpur Zonal Hospital,hospital,Lalitpur,,,Private,2,Premium,2,"Urology, Orthopedics, Cardiology, Endocrinology, Gastroenterology, Dermatology",1371,True,134,4.9,True,True,
"BP Eye Foundation, Children's Hospital for Eye, ENT and Rehabilitation Services (CHEERS)",hospital,Pokhara,,,Community/NGO,1,Budget,0,"Urology, Endocrinology",213,False,23,2.8,False,True,
Pokhara Cancer Centre,clinic,Pokhara,28.216915663964,83.9864290289474,Private,2,Budget,0,"Gastroenterology, General Medicine",565,False,0,2.6,False,False,
Aapgaira Urban Health Center,hospital,Birgunj,28.456380435023,81.9220350927359,Private,2,Standard,1,"Gastroenterology, Pulmonology, Infectious Disease, General Surgery",559,True,57,4.2,True,False,
Nagarik Arogya Sewa Kendra,clinic,Itahari,26.6855010504755,85.7848739784617,Private,2,Budget,0,General Medicine,352,False,0,3.5,False,False,
Senior Consultant Dermatologist,clinic,Kathmandu,27.6865757187313,85.2804824776165,Private,2,Standard,1,Gastroenterology,899,False,0,3.1,False,True,
Talagaun Basic Health Service Center,hospital,Pokhara,28.961466292727,81.0892831218015,Private,2,Premium,2,"Urology, Dermatology, General Medicine, Neurology, Orthopedics, Pulmonology",1202,True,436,5.0,False,True,
Eye Hospital,hospital,Pokhara,,,Private,2,Premium,2,"General Medicine, General Surgery, Pulmonology, Infectious Disease, Urology, Gastroenterology",1655,True,461,3.9,True,True,
Phulika Health Post,clinic,Kathmandu,27.5751827401263,83.1432913770669,Private,2,Budget,0,"Dermatology, General Medicine",272,False,0,2.6,True,True,
Young Friendly Sex and Fertility Clinic,clinic,Kaski,28.2390826965538,83.8891922466121,Private,2,Standard,1,Dermatology,922,False,0,3.7,False,True,
Urban Health Clinic,clinic,Pokhara,28.6769095648036,80.441354378957,Private,2,Budget,0,"General Medicine, Infectious Disease, Dermatology",365,False,0,3.2,True,False,
"जुफाल स्वास्थ्य चौकी, डोल्पा",clinic,Baglung,28.9829219531945,82.8224094924462,Private,2,Standard,1,"Dermatology, Infectious Disease, General Medicine",764,False,0,3.9,False,True,
Gairagau Health Post,clinic,Gorkha,29.3050116700625,81.0703360811349,Private,2,Standard,1,Gastroenterology,884,False,0,3.4,False,True,
Nagar Swasthy Shahari Clinic 3 Lalbandhi MP,clinic,Kathmandu,27.0206851441192,85.6130980208517,Private,2,Budget,0,"Infectious Disease, Gastroenterology, General Medicine",261,False,0,3.5,False,False,
crimson hospital,hospital,Pokhara,,,Private,2,Premium,2,"Orthopedics, General Medicine, Urology, Endocrinology, Neurology, Gastroenterology",1106,True,433,4.2,True,True,
अन कल फार्मेसी क्लिनिक,clinic,Kathmandu,27.6832990651428,85.3189759488457,Private,2,Budget,0,"General Medicine, Infectious Disease",303,False,0,3.1,False,False,
Hetauda Hospital,hospital,Rupandehi,,,Private,2,Premium,2,"Cardiology, Neurology, Urology, Gastroenterology, Endocrinology, General Medicine",1490,True,148,3.7,True,False,
Namaste Hospital and Research Center,hospital,Pokhara,,,Private,2,Premium,2,"Dermatology, Cardiology, Neurology, General Medicine, Pulmonology, Gastroenterology",2540,True,131,3.5,True,False,
Lyati Birth Center,clinic,Lalitpur,29.6290035760367,80.6900782193566,Private,2,Budget,0,"General Medicine, Gastroenterology",505,False,0,3.3,False,False,
Gurudase health unit,hospital,Parbat,28.5113273307247,82.1798723249989,Private,2,Premium,2,"General Medicine, Endocrinology, General Surgery, Urology, Infectious Disease, Neurology",2200,True,475,4.1,True,True,
प्रबेश पोलिक्लिनिक,clinic,Itahari,28.1333197584913,82.2957045271628,Private,2,Budget,0,"Infectious Disease, General Medicine, Gastroenterology",321,False,0,3.0,True,False,
Shree Bhawani Hospital And Research Centre Pvt.Ltd,hospital,Nepalgunj,27.0130767229705,84.8835296249162,Private,2,Premium,2,"Endocrinology, Gastroenterology, Infectious Disease, Dermatology, Urology, Neurology",2009,True,257,4.5,True,True,
Nepalgunj Medical Center,clinic,Bardiya,28.0591338804354,81.6181282384222,Private,2,Standard,1,Gastroenterology,1020,False,0,3.4,False,False,9848263126
Sumeru Hospital,hospital,Dang,,,Private,2,Standard,1,"General Surgery, Gastroenterology, Infectious Disease, Orthopedics",1270,True,189,3.1,True,True,
Gaughar Clinic,clinic,Bhaktapur,28.3774948238577,81.9926274812632,Private,2,Budget,0,"General Medicine, Infectious Disease",458,False,0,2.7,True,True,
Swasthaya Chauki Purbha Kushaha,clinic,Biratnagar,26.5125503691357,87.2289809282952,Private,2,Standard,1,"Dermatology, General Medicine",894,True,0,4.0,False,False,
आयुर्वेद उपचर केन्द्र,clinic,Kathmandu,27.6779706892953,85.3487764644746,Private,2,Standard,1,"Gastroenterology, Dermatology, Infectious Disease",1472,False,0,3.6,False,False,
Bardibas Hospital,hospital,Lalitpur,26.9739207461145,85.8795623269561,Private,2,Premium,2,"Pulmonology, Endocrinology, Gastroenterology, General Medicine, Dermatology, Orthopedics",1235,True,186,4.6,False,True,
Kaski Sewa Hospital and Research Center,hospital,Butwal,,,Private,2,Premium,2,"Orthopedics, Gastroenterology, General Medicine, Urology, Cardiology, Endocrinology",1551,True,179,3.8,True,True,
Saranchiya BHCC,clinic,Butwal,26.780810246538,85.8031528976263,Private,2,Budget,0,"Gastroenterology, Dermatology, General Medicine",231,False,0,3.3,False,True,
Maidan Health post,hospital,Nepalgunj,27.9013699503607,83.2389099491755,Private,2,Premium,2,"Infectious Disease, Urology, Dermatology, Endocrinology, General Medicine, Gastroenterology",1651,True,225,3.9,True,True,
Bhandari Janasewa Medical,hospital,Dhanusha,,,Private,2,Standard,1,"General Surgery, Orthopedics, Urology, Neurology",975,True,128,3.8,True,True,9848041389
Badhwara Health Post,clinic,Sunsari,26.8153214755694,85.3101465358617,Private,2,Standard,1,"Gastroenterology, Infectious Disease",1066,False,0,4.0,True,False,
राणागाउँ स्वास्थ्य चौकी,hospital,Dolpa,28.1454637950852,82.302218355576,Private,2,Standard,1,"Infectious Disease, Urology, Neurology, Cardiology",916,True,73,3.1,True,False,
Khowpa Home Health Care Center,clinic,Kathmandu,27.6751487539539,85.4370108313445,Private,2,Budget,0,"General Medicine, Infectious Disease, Gastroenterology",233,False,0,3.4,False,False,
Ganesh BHCC,clinic,Lalitpur,28.1237882772976,83.8630118749638,Private,2,Budget,0,Dermatology,447,False,0,2.9,False,False,
Sanjeevani Health Clinic,clinic,Dharan,27.9638284562294,84.4093188428279,Private,2,Standard,1,Dermatology,529,False,0,3.2,False,True,
Jana Varosa Poly Clinic,clinic,Kathmandu,27.728884380828,85.3639613717208,Private,2,Standard,1,Dermatology,917,False,0,3.6,False,False,
Ratna Medical Hall,clinic,Pokhara,28.2834134927911,83.9222363911312,Private,2,Budget,0,Gastroenterology,524,False,0,3.3,False,False,
Garima Medical Hall,clinic,Birgunj,28.0592995906612,81.6367180423756,Private,2,Budget,0,Gastroenterology,319,False,0,2.6,False,True,
Barainiya Swashtha Chowki,clinic,Gorkha,26.9798640183787,84.915115318283,Private,2,Budget,0,"General Medicine, Infectious Disease, Dermatology",209,False,0,3.5,True,False,
धनौरी स्वास्थ्य चौकी,clinic,Pokhara,28.1357648434661,82.1606950334522,Private,2,Budget,0,General Medicine,337,False,0,2.9,True,False,
Aasmik Clinic,clinic,Bhaktapur,26.6985399390522,86.2548717645579,Private,2,Standard,1,Dermatology,1067,False,0,4.1,False,True,
Swastha Chauki Bhramhan Gorchadi,clinic,Butwal,26.6969260874151,86.468498145618,Private,2,Standard,1,"General Medicine, Infectious Disease, Gastroenterology",1486,False,0,3.9,False,False,
"Basic Health Service Center, Samgaun",clinic,Butwal,27.3326421458788,87.3161977321198,Private,2,Standard,1,"Gastroenterology, Dermatology",1100,False,0,3.3,False,False,
Pokhara Hospital and Research Centre,hospital,Pokhara,,,Private,2,Standard,1,"General Surgery, Cardiology, Dermatology, Pulmonology",1191,True,66,3.1,True,True,
Gumi Health Post,hospital,Biratnagar,28.4619435879783,81.8268404772898,Private,2,Premium,2,"Gastroenterology, Orthopedics, Endocrinology, Neurology, Dermatology, Infectious Disease",1207,True,413,4.6,True,True,
Heart Clinic,clinic,Kathmandu,27.7383515728245,85.3349715537669,Private,2,Budget,0,"Infectious Disease, Gastroenterology, Dermatology",326,False,0,2.6,False,False,
New Prem Health Clinic,clinic,Pokhara,28.0672846945385,81.6359254496115,Private,2,Budget,0,"General Medicine, Infectious Disease, Gastroenterology",590,False,0,3.1,True,False,
Health Post Ward 8,clinic,Parbat,26.7887094359077,86.2036527202926,Private,2,Budget,0,General Medicine,484,False,0,3.3,False,True,
United Reference Laboratory,clinic,Pokhara,28.2111014730087,83.9847724296042,Private,2,Budget,0,Infectious Disease,533,False,0,2.9,False,True,+977 61 520503
Ganeshpur,clinic,Butwal,27.5774440937835,82.7897567828053,Private,2,Budget,0,"General Medicine, Dermatology, Gastroenterology",264,False,0,2.7,True,True,
Nepal Beijing Friendship Hospital,hospital,Gorkha,,,Private,2,Premium,2,"Gastroenterology, Urology, Dermatology, Neurology, Cardiology, General Medicine",1623,True,258,4.7,True,True,
खनदह स्वास्थ चौकी,hospital,Itahari,28.0588199781616,83.1260799770904,Private,2,Premium,2,"Neurology, Infectious Disease, Cardiology, Dermatology, Endocrinology, Gastroenterology",2163,True,417,4.7,True,True,
bithuwa health center,clinic,Kathmandu,27.4873450887336,83.1958219377217,Private,2,Standard,1,"Infectious Disease, General Medicine",916,False,0,3.8,False,True,
Bastola Medical Hall,clinic,Pokhara,28.2783360711247,83.9361949421241,Private,2,Budget,0,"Dermatology, Gastroenterology, Infectious Disease",428,False,0,2.7,False,False,
Health post,hospital,Dolpa,29.1382471685409,81.7656370776023,Private,2,Premium,2,"Urology, Pulmonology, Dermatology, Infectious Disease, Orthopedics, General Surgery",1171,True,198,4.6,True,True,
Melamchi hospital,hospital,Syangja,27.8271085513572,85.5736007328985,Private,2,Premium,2,"Cardiology, Endocrinology, Pulmonology, Gastroenterology, Dermatology, General Medicine",2733,True,259,3.7,True,True,
Shikhar Pharmacy,clinic,Mustang,27.5072224368335,83.4416311389308,Private,2,Standard,1,"Infectious Disease, Gastroenterology, Dermatology",1151,False,0,3.0,False,True,
जेल्बाङ स्वाथ्य चौकी,clinic,Parbat,28.3798274236918,82.7439879872596,Private,2,Budget,0,"Dermatology, Gastroenterology",456,False,0,2.7,False,False,
Taple health post,clinic,Gorkha,28.0196462316708,84.6773225692691,Private,2,Budget,0,Gastroenterology,304,False,0,3.1,True,False,
"Basic Health service Centre, Chatara Line",clinic,Lalitpur,26.8167389392151,87.2845449835276,Private,2,Standard,1,"Dermatology, Infectious Disease",1301,False,0,3.5,False,True,
झडि आधारभुत स्वास्थ केन्द्र,hospital,Nepalgunj,27.9970817292326,83.1539153555203,Private,2,Standard,1,"Infectious Disease, Dermatology, Neurology, Urology",1491,True,133,3.6,True,True,
Bam Hospital,hospital,Pokhara,29.5983266486119,82.1459732263563,Private,2,Premium,2,"Infectious Disease, Endocrinology, Cardiology, General Medicine, Gastroenterology, Orthopedics",1291,True,191,3.7,True,True,
Bachcha BHCC,clinic,Dharan,28.0994537683662,83.6063271543871,Private,2,Budget,0,"Gastroenterology, General Medicine, Infectious Disease",391,True,0,3.2,False,True,
डेभिटर स्वास्थ्य चौकी,clinic,Kathmandu,27.568816768485,84.8165445560576,Private,2,Budget,0,Gastroenterology,476,False,0,2.6,False,True,
Kaliaanp Hospital,hospital,Dharan,,,Government,0,Premium,2,"Cardiology, General Surgery, Endocrinology, Neurology, Pulmonology, Gastroenterology",186,True,113,2.5,True,True,
Koirala Medical Hall,clinic,Kathmandu,27.7215119940727,85.3713515281109,Private,2,Budget,0,"General Medicine, Gastroenterology",600,False,0,3.5,False,False,
Deurali health post,clinic,Dolpa,27.9399375176139,84.5236171567109,Private,2,Standard,1,"Infectious Disease, Gastroenterology",751,False,0,3.4,True,False,
"नगर स्वास्थ्य केन्द्र, पुर्णागिरी टोल",clinic,Biratnagar,28.9094104830679,80.0619201229845,Private,2,Budget,0,"Gastroenterology, Dermatology, General Medicine",475,False,0,2.9,False,False,
लुक्ला अस्पताल,hospital,Bardiya,,,Private,2,Premium,2,"Endocrinology, Urology, General Surgery, Orthopedics, Gastroenterology, Neurology",2950,True,263,3.9,True,True,
Khodaha-21 Basic Health Post,clinic,Nepalgunj,27.0764522928655,85.0584182860886,Private,2,Budget,0,Dermatology,416,True,0,3.2,True,False,
क्रिस्टल डेन्टल अस्पताल,hospital,Kathmandu,27.6741088950462,85.3748744420147,Private,2,Premium,2,"Urology, General Medicine, Infectious Disease, Dermatology, Orthopedics, General Surgery",2968,True,483,4.3,True,True,
"Urban Health Center, Khamare",clinic,Butwal,27.3144149430567,87.2854408413388,Private,2,Budget,0,"Gastroenterology, Infectious Disease",484,False,0,2.7,True,False,
नगर स्वास्थ्य केन्द्र पन्डितपुर,clinic,Myagdi,28.2587508323504,81.3402862531311,Private,2,Standard,1,"Infectious Disease, Dermatology, Gastroenterology",962,False,0,4.0,False,False,
Jokaha Swastha Chowki Rautahat,clinic,Dolpa,26.8029161750536,85.1959413449229,Private,2,Standard,1,Dermatology,542,False,0,3.7,True,True,
Garuda Health Post,clinic,Itahari,26.9504050653041,85.3219298991621,Private,2,Standard,1,"Dermatology, Gastroenterology, Infectious Disease",501,False,0,3.3,False,True,
Anukul Polyclinic,clinic,Dhanusha,26.7382444276519,86.931448595164,Private,2,Budget,0,General Medicine,437,False,0,2.5,False,False,
Pheta Helth Post,clinic,Lalitpur,26.9980926461243,84.9376296969403,Private,2,Budget,0,Infectious Disease,517,False,0,3.1,False,False,
Rol Basic Health Service Center,clinic,Biratnagar,29.0605997321125,81.4780921173784,Private,2,Budget,0,General Medicine,348,True,0,3.3,False,True,
स्वास्थ्यचाैकि मिरुल,clinic,Mustang,28.4641913629523,82.6486358758528,Private,2,Standard,1,"General Medicine, Infectious Disease, Dermatology",1168,False,0,3.5,False,False,
"Basic Health Service Center, Badigad-03, Baglung",clinic,Itahari,28.2447082946877,83.295472540533,Private,2,Budget,0,"Infectious Disease, Dermatology",285,True,0,3.0,False,False,
Pokhara Medical Hall,clinic,Hetauda,,,Private,2,Budget,0,General Medicine,200,False,0,3.0,False,False,
Vinayak X-Ray,clinic,Sarlahi,28.0546370732019,81.6158465167403,Private,2,Standard,1,Gastroenterology,561,False,0,4.0,False,False,081-522649
Baluwatar Polyclinic,clinic,Kathmandu,27.7424902213354,85.3326672847654,Private,2,Budget,0,"General Medicine, Gastroenterology",446,False,0,2.7,False,False,
Hasegaun Basic Health Service Center,clinic,Kathmandu,28.8153392941042,81.4766679482103,Private,2,Budget,0,"Dermatology, General Medicine, Gastroenterology",339,False,0,3.4,False,True,
Basic Health Care Center Ward 1,clinic,Itahari,26.7360370534512,85.9345583406104,Private,2,Budget,0,"General Medicine, Infectious Disease, Dermatology",506,False,0,2.6,False,False,
जनता डाइगोनोष्टिक,clinic,Hetauda,28.0186807202443,81.6170537622544,Private,2,Standard,1,"General Medicine, Gastroenterology, Infectious Disease",756,False,0,3.9,False,False,
Eye Treatment and Surgical Centre Dhabauli,hospital,Gorkha,26.6435798837625,85.7840873368488,Private,2,Premium,2,"Dermatology, Neurology, Infectious Disease, Endocrinology, General Surgery, General Medicine",2719,False,118,5.0,True,False,
कैलपाल स्वास्थ्य चौकि,clinic,Lalitpur,29.4111747601824,80.4985473732521,Private,2,Standard,1,"Infectious Disease, General Medicine, Gastroenterology",1196,False,0,3.7,False,True,
Rupauliya health post,hospital,Myagdi,,,Private,2,Premium,2,"Neurology, Urology, General Medicine, Gastroenterology, Dermatology, General Surgery",1778,True,295,4.0,True,False,
Pratappur health post,hospital,Kathmandu,27.4559688591271,83.8273467931415,Private,2,Standard,1,"Endocrinology, Infectious Disease, Orthopedics, Gastroenterology",859,True,199,3.5,True,False,
Purtighat Health Post,clinic,Bhaktapur,28.0464095646848,83.5590183517713,Private,2,Budget,0,General Medicine,523,False,0,2.6,True,True,
डुमरा स्वास्थ केन्द्र,clinic,Itahari,27.5311259483037,83.1262511355532,Private,2,Standard,1,"General Medicine, Gastroenterology, Dermatology",717,False,0,4.0,True,True,
abaya upchar kendra,hospital,Sunsari,27.6986883231883,84.4224990502921,Private,2,Standard,1,"Endocrinology, Cardiology, General Surgery, Infectious Disease",1099,True,94,3.6,True,False,
Kalbhairab Health Post,hospital,Pokhara,28.8157793440208,81.6580239182333,Private,2,Premium,2,"Pulmonology, Orthopedics, Dermatology, General Surgery, Urology, Neurology",2721,False,219,3.8,True,True,9684943752
"Bhikhampur Primary Health Center, Dhobini RM-2",clinic,Lalitpur,27.1165160298352,84.7061919392744,Private,2,Budget,0,"Gastroenterology, General Medicine, Dermatology",461,False,0,3.2,True,False,
Rejuwa Skin Care Clinic,clinic,Pokhara,28.217179861552,83.9864699326349,Private,2,Budget,0,"Gastroenterology, Dermatology, Infectious Disease",344,False,0,2.7,False,False,
Niroga-Dham,hospital,Tanahu,27.537927862729,85.318353424897,Private,2,Standard,1,"General Surgery, Pulmonology, Orthopedics, Endocrinology",546,False,148,3.3,True,True,
Masina Health Post,clinic,Pokhara,27.5131766893909,83.243858289533,Private,2,Standard,1,Gastroenterology,665,False,0,4.0,True,False,
"Haripu Basic Health Center, pachgachhiya",clinic,Itahari,27.0173245876798,85.5827265299786,Private,2,Standard,1,"Gastroenterology, General Medicine",1256,False,0,3.7,False,True,
Rag Path Lab and Clinic,doctors,Kaski,,,Private,2,Budget,0,General Medicine,473,False,0,3.2,False,True,
Arun Medical Centre,clinic,Butwal,,,Private,2,Budget,0,"General Medicine, Gastroenterology, Infectious Disease",488,False,0,2.7,True,False,
Dumarbana Shasthe Chauki,clinic,Itahari,27.1651572197795,85.0636596577811,Private,2,Budget,0,General Medicine,235,False,0,3.3,True,False,
बयला हेल्थ पाेष्ट,clinic,Hetauda,29.0259743415598,81.4059908186418,Private,2,Standard,1,"Infectious Disease, General Medicine",807,False,0,3.4,False,False,
सिटी अस्पताल,hospital,Kathmandu,27.6909764693545,85.324692239172,Private,2,Premium,2,"Pulmonology, Orthopedics, General Surgery, Cardiology, Dermatology, Endocrinology",1183,True,133,4.7,True,True,
"वडा स्वास्थ्य केन्द्र, बस्तिखोला",clinic,Parbat,28.219596364237,82.2269488650779,Private,2,Budget,0,"Gastroenterology, Dermatology",402,False,0,3.1,False,False,
Prasad Clinic & Medical Hall,clinic,Bhaktapur,27.5144910556275,83.4530424295493,Private,2,Budget,0,"General Medicine, Gastroenterology",557,False,0,2.9,True,False,
Aadharbhut Swastha Sewa Kendra,clinic,Dhanusha,27.5838668947282,84.4943050545799,Private,2,Budget,0,"General Medicine, Dermatology",262,False,0,2.9,False,True,
sahari swasta kendra,clinic,Pokhara,,,Private,2,Budget,0,"Infectious Disease, Dermatology, Gastroenterology",271,False,0,3.3,False,False,
"Swastha Chauki, Ganjauwaha",hospital,Dharan,28.547401784698,80.921422434983,Private,2,Premium,2,"Infectious Disease, Pulmonology, Cardiology, Dermatology, General Medicine, Gastroenterology",2484,True,411,3.9,True,True,
Thapa Medical,clinic,Rupandehi,28.8586457379546,81.6038062481077,Private,2,Standard,1,"General Medicine, Gastroenterology",1069,True,0,4.2,False,True,986746653
Mirchaiya Hospital,hospital,Biratnagar,,,Private,2,Premium,2,"General Surgery, Infectious Disease, General Medicine, Gastroenterology, Endocrinology, Cardiology",1572,True,256,4.7,True,True,
Khatyaad Community Clinic,clinic,Birgunj,29.5190098723474,81.923543332393,Private,2,Standard,1,Infectious Disease,1399,False,0,3.2,False,True,
आधारभुत स्वास्थ्य केन्द्र,clinic,Banke,27.6106891525216,84.5668715489427,Private,2,Standard,1,"Dermatology, Gastroenterology, General Medicine",942,False,0,3.5,True,True,
Asharbhut swasthe kendra,hospital,Kathmandu,27.4460353818572,83.8578185315766,Private,2,Standard,1,"Gastroenterology, Neurology, Dermatology, Cardiology",715,False,88,3.7,True,True,
Fronline Polyclinic,clinic,Kathmandu,27.6970121940107,85.3457673612353,Private,2,Standard,1,"General Medicine, Infectious Disease",1125,True,0,3.7,False,True,
Deulekh Hospital,hospital,Nepalgunj,,,Private,2,Standard,1,"Pulmonology, Urology, Dermatology, Neurology",1016,True,158,3.5,True,False,
Guthi parsauni health parsauni,hospital,Dolpa,27.4005698435682,83.8076095904627,Private,2,Premium,2,"Endocrinology, General Medicine, Cardiology, Dermatology, Orthopedics, Gastroenterology",2960,True,238,4.3,True,True,
समता अस्पताल,hospital,Kathmandu,27.7164885518628,85.3572092458004,Private,2,Premium,2,"Orthopedics, Gastroenterology, General Surgery, Infectious Disease, Pulmonology, Endocrinology",2642,True,253,4.6,True,False,
Chitwan Valley Model Hospital,hospital,Dolpa,27.6795689505925,84.431893571188,Private,2,Premium,2,"Gastroenterology, Cardiology, Pulmonology, Orthopedics, Infectious Disease, Dermatology",1651,True,221,4.4,True,True,
Auraiya Basic Health Care Center,clinic,Kathmandu,26.9208657297781,85.0349266613404,Private,2,Budget,0,"Gastroenterology, Dermatology, General Medicine",549,True,0,3.2,False,True,
Nepal Cancer Hospital,hospital,Pokhara,,,Private,2,Premium,2,"Orthopedics, Neurology, Cardiology, Infectious Disease, Pulmonology, Gastroenterology",2936,False,289,3.9,True,True,
Gulariya health post,clinic,Biratnagar,28.8366802901362,80.4856352190514,Private,2,Standard,1,"Infectious Disease, Gastroenterology, Dermatology",850,False,0,3.6,False,True,
बागेश्वरी हेल्थ केयर,clinic,Parbat,28.1203612523661,81.8045577744363,Private,2,Budget,0,"Infectious Disease, General Medicine, Gastroenterology",525,True,0,2.6,True,False,
Betauna BHCC,clinic,Lamjung,26.750515617717,86.3061636475618,Private,2,Budget,0,Dermatology,333,False,0,3.3,False,False,
Chest Hospital,hospital,Lamjung,,,Government,0,Standard,1,"General Surgery, Gastroenterology, Urology, Infectious Disease",331,True,147,2.6,True,False,
आधारभुत स्वास्थ सेवा केन्द्र दुन्दुरुक,hospital,Dharan,27.9529418727496,83.2329177265967,Private,2,Premium,2,"Cardiology, Gastroenterology, Pulmonology, Dermatology, General Medicine, Urology",1559,True,359,4.4,True,True,
Nepa Health Post,hospital,Lalitpur,28.8665018443421,81.5671626629089,Private,2,Premium,2,"Gastroenterology, Infectious Disease, Orthopedics, Cardiology, Pulmonology, Neurology",1503,False,189,4.7,False,True,
Maulakalika Hospital,hospital,Syangja,,,Private,2,Standard,1,"Gastroenterology, Cardiology, Dermatology, Pulmonology",1178,True,193,3.5,True,False,
"Samudayik Swasthya Chouki, Garaiya Tol",clinic,Makwanpur,26.7520198340605,87.0650100312824,Private,2,Standard,1,Gastroenterology,829,False,0,3.8,False,False,
Marie Stopes Nepal,clinic,Pokhara,28.2106695535381,83.9836512662357,Private,2,Budget,0,Dermatology,374,True,0,2.7,True,False,061-550074
B.R. Health Clinic,clinic,Chitwan,28.6410144835582,81.114893440215,Private,2,Standard,1,Dermatology,715,False,0,3.7,False,False,
Janasewa Daigonostic and Medical Center Pvt.Ltd,clinic,Kathmandu,27.6815657713855,85.3491626187538,Private,2,Budget,0,"Infectious Disease, Gastroenterology",435,False,0,3.5,True,False,
Suvalav Policlinic,clinic,Dolpa,27.9105677479891,84.8838522443693,Private,2,Budget,0,Gastroenterology,506,True,0,3.4,False,False,
सामुदायिक स्वास्थ्य सेवा केन्द्र,clinic,Rupandehi,29.55820163993,80.810441678376,Private,2,Standard,1,"General Medicine, Dermatology",836,False,0,4.0,False,False,
Swastha Chauki Bhawanipur Kalabanjar,clinic,Kathmandu,26.6854934229436,86.4670485792832,Private,2,Standard,1,General Medicine,516,False,0,3.3,False,False,
HOSPITAL,hospital,Palpa,,,Private,2,Standard,1,"General Medicine, Orthopedics, Gastroenterology, Neurology",1435,True,84,3.8,True,False,
Bhatana Municipal Health Center,hospital,Biratnagar,29.620423273215,80.7740016896053,Private,2,Premium,2,"General Surgery, Gastroenterology, Neurology, General Medicine, Endocrinology, Orthopedics",2416,True,330,3.5,False,True,
Baghwan Health Post,clinic,Rupandehi,27.0021255988363,85.0241077198191,Private,2,Standard,1,"Infectious Disease, Dermatology",636,False,0,3.4,False,False,
Jiwanta Swastha Sewa Sadan,clinic,Parbat,,,Private,2,Standard,1,"Dermatology, Gastroenterology",1161,False,0,3.1,False,False,
Maruti Health Clinic,clinic,Lalitpur,26.7224572806626,85.9244933512796,Private,2,Budget,0,"General Medicine, Gastroenterology, Infectious Disease",201,False,0,2.7,True,False,
Chapselli Sahari Swasthye clinic,clinic,Lalitpur,28.9745588254841,80.509220218201,Private,2,Standard,1,"Gastroenterology, Infectious Disease",1123,False,0,3.1,False,True,
badhimalika polyclinic phalasain,clinic,Lalitpur,29.363935695001,81.3424327747148,Private,2,Budget,0,Infectious Disease,443,True,0,3.2,False,False,
Lumbini Provencial Hospital,hospital,Itahari,,,Government,0,Premium,2,"Endocrinology, Orthopedics, Gastroenterology, General Medicine, General Surgery, Neurology",102,True,111,3.4,True,True,
Right to sight,doctors,Biratnagar,27.471395919556,83.2840368585762,Private,2,Standard,1,General Medicine,1423,False,0,3.2,True,False,
Alpine Pharmacy,clinic,Chitwan,27.5144626409758,83.4533286715426,Private,2,Budget,0,General Medicine,204,False,0,2.9,True,False,
आ स्वा के,clinic,Dhanusha,29.6188868703633,81.2986907233564,Private,2,Budget,0,"Infectious Disease, General Medicine",544,False,0,3.2,False,False,
Gurkha Hospital,hospital,Bhaktapur,,,Private,2,Premium,2,"Gastroenterology, Neurology, Pulmonology, Dermatology, Cardiology, Urology",1355,True,488,3.6,True,True,
Sewa Polyclinic Pvt.Ltd,clinic,Kathmandu,27.7423743834335,85.3330791714874,Private,2,Budget,0,Dermatology,411,False,0,3.2,False,False,
श्रीगाउँ सामुदायिक स्वास्थ्य सेवा इकाइ,hospital,Kaski,28.1212524163114,82.200629689113,Private,2,Premium,2,"General Medicine, Pulmonology, Infectious Disease, Urology, Orthopedics, Cardiology",2138,True,418,4.4,True,True,
Buddham policlinic pvt,clinic,Biratnagar,27.5705470447571,82.9520034385164,Private,2,Standard,1,Dermatology,1416,False,0,4.0,False,False,
काठमाडौं मेडिकल कलेज,hospital,Kathmandu,27.7015905571622,85.3275904498323,Private,2,Premium,2,"Pulmonology, Infectious Disease, Neurology, Cardiology, Urology, Gastroenterology",2426,True,345,4.9,True,True,
Shivagunj Health Center,hospital,Nepalgunj,26.5746628700415,87.8396030773999,Private,2,Premium,2,"Infectious Disease, Neurology, Cardiology, Gastroenterology, Dermatology, Pulmonology",2440,True,391,3.7,True,True,
"Rajdevi Municipality Health Post, Redcross Tole-9",clinic,Baglung,26.7557391359557,85.3212966463773,Private,2,Standard,1,Gastroenterology,1000,False,0,3.7,False,False,
आधारभुत स्वास्थ्य केन्द्र शिनपा -१२ रजिया,hospital,Syangja,27.8171615792231,83.0686797821488,Private,2,Standard,1,"Orthopedics, Cardiology, General Medicine, Pulmonology",1280,True,158,3.3,False,False,
General Health Clinic,clinic,Kathmandu,27.0431518297474,84.9991530338719,Private,2,Budget,0,"Dermatology, General Medicine, Infectious Disease",401,False,0,2.5,False,False,
Paterwa BHCC,clinic,Butwal,26.7933220810431,86.1276988474003,Private,2,Standard,1,"Infectious Disease, General Medicine",1051,False,0,3.1,False,True,
JGO Free Health Clinic,doctors,Kathmandu,27.7045816393097,85.3062666367018,Private,2,Budget,0,General Medicine,241,False,0,3.4,False,False,
Pawai Gamde Hospital,hospital,Biratnagar,,,Private,2,Premium,2,"General Surgery, Pulmonology, Infectious Disease, Orthopedics, Neurology, Urology",2612,True,407,3.7,True,True,
आधारभुत स्वास्थय केन्द्र कटटि,clinic,Kathmandu,28.2157115197541,81.308166464894,Private,2,Standard,1,"General Medicine, Gastroenterology, Infectious Disease",1397,False,0,3.5,True,True,
Samudaye Ekai Swasta Chowki,clinic,Bardiya,26.8235911450594,86.5149154490123,Private,2,Standard,1,"Dermatology, Gastroenterology, Infectious Disease",1164,False,0,4.2,False,False,
Dhakal Medical,clinic,Morang,27.9944553436922,84.627480168781,Private,2,Budget,0,"Dermatology, General Medicine",533,False,0,3.2,False,False,
Dhuli Samudaik Swasthya Kendra,hospital,Biratnagar,29.7741210582413,81.279768241666,Private,2,Premium,2,"Infectious Disease, Neurology, Gastroenterology, Endocrinology, Cardiology, Pulmonology",1158,True,268,4.7,True,True,
जुकेना स्वास्थ चौकी,hospital,Sarlahi,27.884916274431,83.0526122604984,Private,2,Premium,2,"Urology, General Medicine, Dermatology, Gastroenterology, Infectious Disease, Pulmonology",2103,True,163,3.6,True,True,
madhyabindu samudayik hospital,hospital,Itahari,27.6268891920611,84.0905130718042,Private,2,Premium,2,"General Medicine, General Surgery, Infectious Disease, Cardiology, Urology, Endocrinology",1063,True,102,4.5,True,True,
Pashupati Poyclinicl,clinic,Butwal,,,Private,2,Standard,1,"Dermatology, Gastroenterology",1413,False,0,3.8,False,False,
ह्वावे अन्तर्राष्ट्रिय अस्पताल,hospital,Kathmandu,27.7130486188004,85.3452848988887,Private,2,Standard,1,"General Medicine, Pulmonology, Cardiology, Dermatology",1352,True,200,3.3,True,True,
Regional Hospital,hospital,Kathmandu,,,Private,2,Premium,2,"General Medicine, Pulmonology, General Surgery, Urology, Infectious Disease, Dermatology",2671,True,360,3.8,True,True,
Aaman Medical Hall,clinic,Kathmandu,28.0571325334147,81.6170547680828,Private,2,Standard,1,"Gastroenterology, General Medicine",1187,False,0,3.6,False,True,081-525994
Alfresco Polyclinic and Diagonistics,clinic,Kathmandu,27.7373489295668,85.3089896655857,Private,2,Budget,0,"General Medicine, Infectious Disease",427,False,0,2.6,False,False,
Maheshpur Basic Health Care Center,clinic,Lamjung,26.8106251790403,86.2563415312794,Private,2,Budget,0,Dermatology,544,False,0,2.8,False,True,
सामुदायिक स्वास्थ्य इकाइ भु न पा 9 डेबा,hospital,Baglung,27.9321464547951,83.0797095285348,Private,2,Premium,2,"Neurology, Orthopedics, Gastroenterology, Infectious Disease, Cardiology, General Medicine",1252,True,245,5.0,True,True,
Nepal Red Cross Society Regional Blood Transfusion Service Center,hospital,Biratnagar,26.4584857525621,87.2864932731013,Private,2,Premium,2,"Dermatology, General Medicine, Orthopedics, General Surgery, Cardiology, Gastroenterology",1722,True,364,4.6,True,True,
Madhyapur Hospital,hospital,Hetauda,,,Private,2,Premium,2,"Endocrinology, General Medicine, Pulmonology, Orthopedics, Infectious Disease, Gastroenterology",2990,True,401,4.3,True,False,
Om Swasth Clinik,clinic,Syangja,27.0348796456864,85.0039062435235,Private,2,Budget,0,Infectious Disease,392,False,0,2.9,False,True,
स्वास्थ्या चौकी झेनाम,clinic,Itahari,28.2105712338139,82.454048149661,Private,2,Standard,1,"Infectious Disease, General Medicine, Dermatology",1347,False,0,3.3,False,True,
Kirtipur Hospital,hospital,Lalitpur,,,Community/NGO,1,Standard,1,"Gastroenterology, Dermatology, Cardiology, Endocrinology",1115,False,198,3.3,True,True,
नाडा स्वास्थ्य चौकी,clinic,Lalitpur,28.9483317666351,81.3311614618793,Private,2,Standard,1,"Gastroenterology, Dermatology, Infectious Disease",866,False,0,3.0,False,True,
Shubhakamana Policlinic,clinic,Birgunj,,,Private,2,Standard,1,Infectious Disease,896,False,0,3.1,True,True,
Kalafata Swasthya Chauki,clinic,Tanahu,27.8930053977267,81.8757781351493,Private,2,Standard,1,Dermatology,681,False,0,4.1,False,True,
नेपालगन्ज शिक्षण अस्पताल,hospital,Dang,28.0595285842559,81.6177098976348,Private,2,Standard,1,"General Medicine, Cardiology, General Surgery, Pulmonology",1359,False,154,3.3,True,True,
Aadharbhut Swastha Kendra,clinic,Gorkha,27.6336418208958,84.5088714611909,Private,2,Standard,1,"Infectious Disease, Gastroenterology, General Medicine",1286,False,0,4.1,True,False,
बांगेशाल स्वास्थ्य चौकी वडा न.१,hospital,Tanahu,27.9105494754402,82.8510376312782,Private,2,Standard,1,"Dermatology, Orthopedics, Neurology, Urology",1331,True,55,4.0,True,True,
महेन्द्र नारायण निधि मेमोरियल अस्पताल,hospital,Kathmandu,27.7375472453959,85.3253254919567,Private,2,Premium,2,"Orthopedics, Dermatology, Gastroenterology, Urology, Endocrinology, General Medicine",2427,False,233,4.7,True,True,
झग्रवा स्वास्थ्य केन्द्र,clinic,Bhaktapur,27.8705474292778,82.3559233885035,Private,2,Standard,1,"Gastroenterology, General Medicine",508,False,0,3.4,True,True,
Gaida Bhetpur BHCC,clinic,Pokhara,26.7927965357141,85.7474836495091,Private,2,Standard,1,"Gastroenterology, Infectious Disease, General Medicine",627,False,0,3.8,False,True,
Moti Health Clinic,clinic,Lalitpur,27.9614392785488,84.4108892762064,Private,2,Standard,1,Dermatology,973,False,0,3.6,False,False,
Aadharbhut swasthya Sewa Kendra,hospital,Bardiya,27.5161227607183,83.668350136567,Private,2,Premium,2,"Pulmonology, General Surgery, Urology, Infectious Disease, Orthopedics, Endocrinology",1758,True,141,4.4,True,True,
Shree H.P. Polyclinic,clinic,Lamjung,26.6617127901739,86.2104536288895,Private,2,Budget,0,"Dermatology, Gastroenterology",298,False,0,3.1,False,False,
Famous Pathalogy,clinic,Butwal,28.0589681702097,81.6179767774319,Private,2,Standard,1,Infectious Disease,955,False,0,3.2,False,True,
Chayanath health care,clinic,Kathmandu,27.7103196387652,85.4154095772189,Private,2,Budget,0,"General Medicine, Infectious Disease",204,False,0,3.1,True,False,
नागार स्वास्थ्य केन्द्र,clinic,Kaski,29.4651332618619,80.5969149581446,Private,2,Budget,0,General Medicine,313,False,0,2.6,False,False,
Aadhar Vhuta Sawasta Kendar,clinic,Lalitpur,27.0592574890572,85.022506692494,Private,2,Budget,0,Infectious Disease,580,False,0,2.9,True,False,
Rampura Basic Health Care Center,clinic,Parbat,26.8334460838967,86.2933989310379,Private,2,Budget,0,"Dermatology, General Medicine",210,True,0,3.5,False,False,
किमडाडा स्वास्थ चौकी,hospital,Gorkha,27.9945716845082,83.0777205867308,Private,2,Premium,2,"Infectious Disease, Pulmonology, Cardiology, Endocrinology, Gastroenterology, General Surgery",2553,True,233,4.0,False,True,
katuka Health Post,hospital,Mustang,28.6027450606008,81.6254134533845,Government,0,Premium,2,"Dermatology, Urology, Gastroenterology, Infectious Disease, General Medicine, General Surgery",243,True,300,2.7,True,True,9858027741
स्वास्थ्या चौकी डुब्रीङ,clinic,Palpa,28.1678561332323,82.4675597775768,Private,2,Budget,0,General Medicine,548,False,0,3.3,True,False,
"Wada Paramarsa Tatha Swastha Sewa Kendra, Walkhu",clinic,Kathmandu,27.673590725792,85.326762988351,Private,2,Standard,1,"Gastroenterology, Dermatology, Infectious Disease",1443,False,0,3.1,False,False,
टरिगाउँ स्वास्थ्य चौकी,hospital,Lamjung,28.0987888319874,82.2671269312069,Private,2,Premium,2,"General Surgery, General Medicine, Gastroenterology, Pulmonology, Dermatology, Endocrinology",2452,True,321,4.2,False,True,
मिड वेस्टर्न आखा अस्पताल,hospital,Kathmandu,28.0394174648765,81.6127736272179,Private,2,Standard,1,"Gastroenterology, General Surgery, Urology, Neurology",866,False,136,3.6,False,True,
Gaur Central Hospital Pvt. Ltd.,hospital,Sarlahi,26.7608775778771,85.2780837445663,Private,2,Premium,2,"General Surgery, Dermatology, Gastroenterology, Neurology, Urology, Orthopedics",1392,True,110,4.4,True,True,
Ghorahi Hospital,hospital,Birgunj,,,Private,2,Premium,2,"General Surgery, Dermatology, Urology, Pulmonology, Endocrinology, Orthopedics",1184,True,439,3.7,True,True,
Joshipur Primary Health Center,hospital,Parbat,,,Private,2,Premium,2,"Neurology, Pulmonology, Gastroenterology, Urology, Infectious Disease, Orthopedics",2671,True,470,4.2,True,False,
Dr. Aadarsh Kumar Singh(Physician),clinic,Dang,26.5358085578806,86.7498168605266,Private,2,Budget,0,Infectious Disease,514,True,0,2.5,False,False,
ओम साइ पाथिभारा अस्पताल तथा अनुसन्धान केनद्र,hospital,Gorkha,26.5599900970791,88.0803748386207,Private,2,Standard,1,"Orthopedics, Gastroenterology, Infectious Disease, Endocrinology",1140,True,122,3.2,False,True,
Shahari Swathya Pravandhan Kendra,clinic,Palpa,27.1368045941047,85.0187148871364,Private,2,Standard,1,"Dermatology, Infectious Disease, Gastroenterology",810,False,0,3.2,False,True,
Devraj Medicall Hall,clinic,Biratnagar,28.2718934888884,83.738349840721,Private,2,Budget,0,"General Medicine, Gastroenterology",567,False,0,3.3,False,False,
Homiyopythic Sagarmatha Clinic,clinic,Kathmandu,27.6798303821525,85.3421040504533,Private,2,Standard,1,"Gastroenterology, Dermatology",726,True,0,3.6,False,True,
Mid-west medcene distributer,clinic,Bardiya,28.0697586970792,81.6330956352811,Private,2,Budget,0,Gastroenterology,319,False,0,3.4,True,False,
Nepal Red Cross,hospital,Lalitpur,,,Private,2,Standard,1,"Urology, Gastroenterology, Endocrinology, Neurology",1005,True,161,3.9,True,False,
Adharbhut Health Post,clinic,Biratnagar,26.5870484730848,87.2839856591289,Private,2,Budget,0,Infectious Disease,385,True,0,3.2,False,False,
Public lumbini United hospital Pvt.Ltd,hospital,Lamjung,27.9586780281864,83.3029835639667,Private,2,Premium,2,"Dermatology, Infectious Disease, General Medicine, Neurology, General Surgery, Cardiology",1075,True,242,4.1,True,True,
खयरभट्टि शहरी स्वास्थ केन्द्र,hospital,Gorkha,27.7464210824667,82.9297956698772,Private,2,Premium,2,"Endocrinology, Cardiology, Infectious Disease, Pulmonology, General Surgery, Dermatology",1574,True,500,4.4,False,True,
Sub Healthpost,hospital,Pokhara,28.0475417921655,83.7496381688198,Private,2,Standard,1,"Dermatology, Endocrinology, Orthopedics, Infectious Disease",1004,True,197,3.2,True,True,
केरवानी स्वास्थ्य चौकि,clinic,Palpa,27.5928229582692,83.5685424568903,Private,2,Standard,1,"Dermatology, General Medicine",1426,False,0,3.1,False,True,
Asian Medi Mart Pvt Ltd,clinic,Kathmandu,27.7437845548235,85.3299938767482,Private,2,Budget,0,"Infectious Disease, Dermatology",560,True,0,2.8,False,True,
Nagarik Aarogya Sewa Kendra,clinic,Nepalgunj,26.7319206169836,86.2562933353361,Private,2,Standard,1,"General Medicine, Infectious Disease",1223,False,0,3.3,False,False,
ओरिसन मेडिकल हल,hospital,Kathmandu,27.7071766765322,85.3789968296335,Private,2,Standard,1,"General Surgery, Pulmonology, Dermatology, Cardiology",1120,True,129,3.0,True,False,
Sahara International Fertilty Centre,clinic,Pokhara,28.2251232235515,83.9800510711846,Private,2,Standard,1,Dermatology,714,False,0,3.3,False,False,
Shanti Hospital,hospital,Biratnagar,27.681139132514,84.4316312176186,Private,2,Premium,2,"Neurology, Infectious Disease, Urology, Pulmonology, Endocrinology, Gastroenterology",1014,True,387,4.2,True,True,
पोखरीकाँडा स्वास्थ्यचौकी,hospital,Dang,,,Private,2,Premium,2,"Endocrinology, Urology, Orthopedics, Dermatology, Neurology, Cardiology",1401,False,459,4.5,True,True,
Siddhasthali Rural Community Hospital,hospital,Pokhara,27.3875154484707,85.0664123586023,Private,2,Premium,2,"Pulmonology, Urology, General Surgery, Neurology, Gastroenterology, Endocrinology",2681,True,269,3.7,True,True,
Mithila Hospital,hospital,Kathmandu,26.7342991496471,85.9247615721812,Private,2,Premium,2,"Neurology, Endocrinology, Orthopedics, General Medicine, Infectious Disease, Cardiology",2307,True,117,4.2,True,True,
स्वास्थ्य सेवा केन्द्र गाईनिकाडा,clinic,Bhaktapur,28.6431649446364,81.3231029325302,Private,2,Budget,0,Dermatology,402,True,0,3.4,False,False,
मैत्री सामुदायिक अस्पताल,hospital,Kathmandu,27.7268922539008,85.345143077087,Private,2,Premium,2,"Neurology, General Surgery, Cardiology, Infectious Disease, Endocrinology, Urology",1227,True,449,4.7,True,True,
Suwanauli Health Care Center,clinic,Birgunj,28.7776110906347,82.015938140722,Private,2,Standard,1,"Dermatology, General Medicine",1390,False,0,3.4,False,True,
Sapana Ayurbed Hospital,clinic,Gorkha,,,Private,2,Budget,0,General Medicine,342,False,0,3.0,True,False,
महुवा स्वास्थ्य चा‌ैकी,clinic,Mustang,27.5950717390716,82.9834975176815,Private,2,Standard,1,"Infectious Disease, Gastroenterology, Dermatology",1082,True,0,3.4,False,False,
Purchaudi Hat Health Post,clinic,Biratnagar,29.6073055947485,80.693623848218,Private,2,Standard,1,"Dermatology, General Medicine, Infectious Disease",1012,False,0,4.1,False,False,
Pokhariya Polyclinic Hospital,clinic,Morang,27.0755295291451,84.7654416849703,Private,2,Budget,0,"Infectious Disease, General Medicine",452,False,0,2.7,False,False,
CWC Polyclinic,clinic,Dharan,27.6303713699155,85.5236029319256,Private,2,Standard,1,"Dermatology, Infectious Disease",674,False,0,3.9,False,True,
Hile Polyclinic,clinic,Dolpa,27.0282428547536,87.3133664928659,Private,2,Standard,1,"Infectious Disease, General Medicine",1065,False,0,3.4,True,True,
Siktahan Health Post,clinic,Hetauda,27.553257190167,83.550877344495,Private,2,Budget,0,"Dermatology, Gastroenterology",299,True,0,2.8,False,True,
Basic Health Post,clinic,Parbat,26.9918262514928,85.555755577223,Private,2,Budget,0,Infectious Disease,537,False,0,3.0,False,False,
राप्ती क्षेत्रीय आयुर्वेदिक अस्पताल,hospital,Lalitpur,28.1325190352812,82.2870477813842,Private,2,Standard,1,"Urology, General Medicine, Endocrinology, Dermatology",1256,True,132,3.3,True,False,
Laxmipur Health Post,clinic,Mustang,27.004074056048,85.5664214651923,Private,2,Budget,0,Infectious Disease,489,False,0,3.2,False,False,
Parbatipur Health Center,clinic,Bhaktapur,27.5982998614408,84.3256258749165,Private,2,Standard,1,General Medicine,1188,True,0,3.5,False,False,
Prime Heath Care Center,clinic,Mustang,27.0837247673349,84.739311437103,Private,2,Standard,1,"Infectious Disease, General Medicine, Gastroenterology",1198,False,0,3.1,False,False,
Basic Health Service Center,clinic,Biratnagar,27.6921364409347,84.1653383214341,Private,2,Standard,1,Dermatology,1117,False,0,3.4,False,False,
mata parbati medical hall,clinic,Lalitpur,28.0940596783979,81.5436032285639,Private,2,Standard,1,Dermatology,1078,False,0,3.8,False,False,9848021826
Kalaiya City Clinic,clinic,Butwal,27.0300540163914,85.0024032844655,Private,2,Standard,1,"Gastroenterology, Dermatology, Infectious Disease",679,False,0,3.8,True,True,
Rajhar Health Post,clinic,Dhanusha,27.6856086985622,84.2450764559712,Private,2,Standard,1,"Infectious Disease, Gastroenterology, Dermatology",566,False,0,3.4,True,True,
Swasthya Chauki Kamalpur,clinic,Birgunj,26.6884409191945,86.9524651277242,Private,2,Standard,1,General Medicine,1102,False,0,3.2,True,False,
KarkiGaun Health Care Center,clinic,Chitwan,28.6882970508171,82.0620949345657,Private,2,Standard,1,"Gastroenterology, Infectious Disease",631,False,0,4.0,False,True,
Rijjupokhari Health Post,hospital,Hetauda,28.8407649591907,81.6230189951049,Private,2,Premium,2,"General Medicine, Dermatology, Endocrinology, Urology, General Surgery, Infectious Disease",2527,True,486,3.8,True,True,
भगवति स्वास्थ्य चौकि,hospital,Dharan,28.0408362696267,83.2218551231503,Private,2,Premium,2,"Dermatology, General Surgery, Urology, Gastroenterology, Pulmonology, Cardiology",1133,True,136,3.6,True,True,
Kafalseri health post,hospital,Itahari,29.6450001867862,80.8100586254009,Private,2,Premium,2,"General Surgery, Endocrinology, Orthopedics, Urology, Pulmonology, Gastroenterology",1260,True,364,4.8,True,True,
"Rajpur Tulsi Ayurveda, Rajpur Tulsi Tole",clinic,Pokhara,26.8529524489621,85.28715816058,Private,2,Standard,1,"General Medicine, Dermatology, Infectious Disease",765,False,0,3.8,False,False,
Samudayek Swasthiye Ikai,hospital,Makwanpur,28.2920258983019,83.7708229261767,Private,2,Standard,1,"Cardiology, Infectious Disease, Dermatology, General Surgery",1455,False,112,3.7,True,True,
Shifa Pathalogy,clinic,Kathmandu,28.0585705327232,81.6179773641651,Private,2,Budget,0,General Medicine,491,False,0,3.3,False,False,
Family Healt Clinic,clinic,Parbat,28.0551534822564,84.0725625556059,Private,2,Standard,1,"General Medicine, Gastroenterology, Dermatology",1376,True,0,3.3,False,False,
सामुदायिक स्वास्थ्य इकाई बुरानी,clinic,Hetauda,28.758896396324,81.4526643568161,Private,2,Budget,0,"Gastroenterology, General Medicine, Dermatology",316,False,0,3.1,False,True,
Mamata Polyclinic,clinic,Pokhara,28.1634076895801,84.0685260824946,Private,2,Budget,0,"Gastroenterology, General Medicine",467,False,0,3.3,False,False,"061 561042,9856031011"
Jaleshwornath Polyclinic and Diagnostic Centre,clinic,Dhanusha,26.6526849775418,85.7977817740727,Private,2,Budget,0,"Infectious Disease, Dermatology",573,False,0,2.8,False,False,
Nilgiri Hospital,hospital,Sarlahi,28.264436193454,83.5972686639895,Private,2,Premium,2,"Neurology, General Medicine, Endocrinology, Gastroenterology, General Surgery, Cardiology",2602,True,443,4.3,True,True,
Gulmi District Hospital,hospital,Rupandehi,28.0682615215343,83.2482723673822,Private,2,Premium,2,"Orthopedics, Gastroenterology, Cardiology, Infectious Disease, Urology, Pulmonology",1561,True,362,4.3,True,False,
सिलगां स्वास्थ्य चाैकी,clinic,Dharan,29.4411373818187,80.5597371942565,Private,2,Budget,0,"Infectious Disease, Dermatology, General Medicine",298,False,0,3.0,False,False,
Sigana Health Post,clinic,Kathmandu,28.2503145306253,83.5568132406844,Private,2,Budget,0,Gastroenterology,547,False,0,3.3,True,False,
नेशनल प्याथ ल्याब,clinic,Rupandehi,28.056919381617,81.6169392654571,Private,2,Budget,0,"Dermatology, Gastroenterology, Infectious Disease",211,False,0,3.0,False,False,
Birgunj Health Care Hospital,hospital,Birgunj,27.0444373622371,84.8989562662499,Private,2,Standard,1,"Urology, Pulmonology, Gastroenterology, General Surgery",1493,True,54,3.2,True,False,
ShivaOm Aayurveda,clinic,Birgunj,27.5179070164468,83.4529939821489,Private,2,Budget,0,"Infectious Disease, Gastroenterology",554,False,0,2.5,False,False,
RamLal Golchha Eye Hospital,hospital,Biratnagar,26.4637235200362,87.2845734819984,Private,2,Premium,2,"Gastroenterology, General Medicine, Neurology, Orthopedics, Infectious Disease, General Surgery",2388,True,491,4.0,True,True,
M.B Media Dental College And Teaching Hospital Pvt. Ltd,hospital,Gorkha,26.9953250255155,84.8625335441997,Private,2,Standard,1,"Infectious Disease, Pulmonology, General Surgery, Neurology",1045,False,190,3.5,True,False,
Sotang Hospital,hospital,Dhanusha,27.489942221432,86.779074647925,Private,2,Standard,1,"General Medicine, Dermatology, Gastroenterology, Pulmonology",1129,True,135,3.4,True,False,
Aadharbhut Swasthaya Kendra,clinic,Biratnagar,26.5717320537778,87.2848575446969,Private,2,Budget,0,"Gastroenterology, Infectious Disease",329,False,0,3.4,True,True,
Super X ray Clinic,clinic,Kathmandu,27.7079222468195,85.3315339676374,Private,2,Budget,0,"Infectious Disease, Dermatology",548,False,0,3.0,False,False,
Sawasth Chaiki Inarwa Sira,clinic,Biratnagar,27.0877360947367,84.9949187478458,Private,2,Standard,1,"General Medicine, Gastroenterology",1073,True,0,3.5,False,True,
Siddhi binayak Polyclinic,clinic,Birgunj,27.5143265188682,83.3921783293022,Private,2,Standard,1,"Dermatology, Gastroenterology",1404,False,0,3.5,False,True,
Galaxy Pharmacy,clinic,Butwal,27.5145326298673,83.4533371372648,Private,2,Standard,1,Dermatology,964,False,0,3.9,False,True,
मध्यपश्चिम पोलिकीलनीक प्रा. ली,clinic,Dharan,28.0540000485607,81.6171474719319,Private,2,Budget,0,"Gastroenterology, Dermatology, General Medicine",201,False,0,3.4,True,False,
किष्णा अाधारभुत स्वास्थ्य सेवा केन्द्र,clinic,Biratnagar,27.5573280290812,83.2671436356442,Private,2,Budget,0,"Gastroenterology, Dermatology",418,False,0,3.1,False,False,
Panchakanya Health Service Center,clinic,Lalitpur,26.7915491408839,87.3156290199895,Private,2,Budget,0,"Infectious Disease, General Medicine",528,False,0,3.4,False,False,
"Basic Health Service Center, Siraha",clinic,Butwal,26.6485350972806,86.2068199900448,Private,2,Standard,1,"Dermatology, Gastroenterology",1189,False,0,3.9,False,True,
nagar swaath kendra,clinic,Parbat,27.4988822755378,83.4263534440164,Private,2,Budget,0,Gastroenterology,532,False,0,2.8,False,False,
Om Hospital and Research Center,hospital,Sunsari,,,Private,2,Standard,1,"Cardiology, Orthopedics, General Surgery, General Medicine",553,False,50,3.4,True,True,
Pristine Polyclinic;Saransh Pharmacy,clinic,Kathmandu,27.7463383530824,85.3247014592654,Private,2,Budget,0,"Dermatology, Infectious Disease, Gastroenterology",365,True,0,3.5,False,False,
Dahakhani Health Clinic,clinic,Tanahu,27.6808986557119,84.4396385335393,Private,2,Budget,0,"Gastroenterology, Infectious Disease",421,False,0,3.4,True,False,
Jalkeni Health Post,clinic,Kaski,27.7195234713639,85.7303731676469,Private,2,Budget,0,"General Medicine, Infectious Disease",408,False,0,2.8,False,True,
Aaliya Polyclinic,clinic,Biratnagar,27.1346435718285,84.9585647574016,Private,2,Budget,0,"Infectious Disease, Gastroenterology",340,False,0,2.8,False,False,
दुर्गाभवानी स्वस्थ्यचाैकी,clinic,Hetauda,29.5594699895182,80.4727332907725,Private,2,Budget,0,"General Medicine, Infectious Disease, Dermatology",262,True,0,3.3,True,False,
Rajbiraj Eye General Hospital,hospital,Kathmandu,26.5345000589762,86.7523269890699,Private,2,Standard,1,"Infectious Disease, Gastroenterology, Endocrinology, Pulmonology",1196,True,144,3.6,True,True,
भारोसा अस्पताल,hospital,Kathmandu,27.6943237823869,85.3370556301719,Private,2,Standard,1,"Urology, Dermatology, General Surgery, Endocrinology",1030,False,139,3.1,True,False,
Basic health centre,clinic,Biratnagar,28.7977683943006,80.5247497893058,Private,2,Budget,0,"General Medicine, Dermatology, Gastroenterology",438,False,0,2.5,True,False,
Tengraha Health Care Center,clinic,Butwal,26.9811631295516,85.1849224950111,Private,2,Budget,0,"General Medicine, Dermatology",453,False,0,2.6,True,True,
रिदम न्यूरोसाइकियाट्री अस्पताल र अनुसन्धान केन्द्र,hospital,Kathmandu,27.6694471319582,85.3098020396413,Private,2,Premium,2,"General Surgery, Urology, Orthopedics, Dermatology, Pulmonology, Cardiology",1740,True,210,4.1,True,True,
Sarpa Dansk Upachar Kendra,clinic,Itahari,27.0046824983993,85.9050368585382,Private,2,Budget,0,"Infectious Disease, Gastroenterology, General Medicine",464,False,0,3.0,False,True,
Manikapur health post,clinic,Rupandehi,28.1069586730106,81.6622960904618,Private,2,Standard,1,Gastroenterology,1277,False,0,3.4,False,False,
Bhadsain Health Post,hospital,Nepalgunj,29.5351851852726,80.9188234582659,Private,2,Premium,2,"Gastroenterology, General Medicine, Endocrinology, General Surgery, Orthopedics, Urology",1089,True,175,4.9,True,True,
Lakkad Health Service Center,clinic,Butwal,26.6880810840913,86.1835745417927,Private,2,Standard,1,Infectious Disease,1405,False,0,3.6,False,True,
Animal Hospital,hospital,Pokhara,,,Private,2,Premium,2,"Cardiology, Urology, Pulmonology, Dermatology, General Medicine, Gastroenterology",2477,True,210,3.8,True,True,
Kisor Kisori Maitri Youn Tatha Prajanan Swasthya Seba Clinic,clinic,Pokhara,28.1338732993769,84.0297272585328,Private,2,Standard,1,"General Medicine, Gastroenterology",729,False,0,3.6,False,True,
चौधरी सरकार बक्स पोलिक्लिनिक एण्ड डाइग्निष्टिक प्रालि,clinic,Nepalgunj,28.0507948926062,81.6184041706747,Private,2,Budget,0,"Dermatology, General Medicine",224,False,0,3.0,False,True,
Jhumla Community Health Care Unit,clinic,Tanahu,28.5754676654652,82.6874126554093,Private,2,Standard,1,Infectious Disease,784,False,0,3.5,True,False,
Malaniya Health Care Center,clinic,Dang,26.8305164410995,86.2134772328213,Private,2,Budget,0,Dermatology,415,True,0,2.6,False,False,
aadharbhut health post piparpati,hospital,Lalitpur,27.4315776885303,83.8171462684364,Private,2,Premium,2,"Dermatology, Infectious Disease, Pulmonology, Endocrinology, Orthopedics, General Surgery",2090,True,208,4.3,False,True,
नेत्र उपचार केन्द्र पाटन आँखा अस्पताल,hospital,Kathmandu,29.4635377665928,80.5503930485987,Private,2,Premium,2,"General Medicine, Dermatology, Pulmonology, Orthopedics, Urology, General Surgery",1919,True,306,3.8,True,True,
Singhasani Health Post,clinic,Hetauda,27.0050410762171,85.174957250328,Private,2,Standard,1,"Gastroenterology, General Medicine, Dermatology",823,True,0,3.2,False,True,
Maa Jankaki Hospital,hospital,Kaski,28.047598453831,81.6177762823079,Private,2,Premium,2,"Orthopedics, Pulmonology, Endocrinology, Dermatology, General Surgery, General Medicine",1010,True,482,3.7,True,True,
Pipara Hospital,hospital,Birgunj,27.6894726721062,83.2021202674044,Private,2,Premium,2,"Infectious Disease, Gastroenterology, General Medicine, General Surgery, Pulmonology, Orthopedics",1802,True,375,3.8,True,True,
Asha Ayurved Clinic,clinic,Palpa,27.0329638778971,85.0062720356943,Private,2,Budget,0,"General Medicine, Infectious Disease, Dermatology",299,False,0,2.8,False,False,
Suraksha Aspatal Pvt.Ltd,hospital,Biratnagar,26.461388154174,87.2845784273213,Private,2,Premium,2,"Neurology, Gastroenterology, Dermatology, General Medicine, General Surgery, Urology",1685,True,213,4.2,True,True,
jogbuda hospital,hospital,Banke,29.1281157945371,80.355156060187,Private,2,Premium,2,"Neurology, Infectious Disease, General Medicine, Pulmonology, Cardiology, Dermatology",1167,True,145,4.4,True,False,
Chhahari Nepal,clinic,Kathmandu,27.6750404597649,85.317434349214,Private,2,Budget,0,"Dermatology, Infectious Disease",492,False,0,3.4,False,True,
"Matihani Prasuti Kendra, Matihani",clinic,Rupandehi,26.6145343261524,85.8417891964856,Private,2,Budget,0,"Infectious Disease, Gastroenterology",212,True,0,2.9,False,False,
Basic Health Care Center Ward 7,clinic,Pokhara,26.7250138449496,85.9185844448185,Private,2,Budget,0,Gastroenterology,577,False,0,3.2,False,False,
Ayurvedic Teaching Hospital (OPD),hospital,Bhaktapur,,,Private,2,Premium,2,"Infectious Disease, General Surgery, Orthopedics, Dermatology, Gastroenterology, Neurology",1462,True,212,3.6,True,False,
Medi Max Pharmacy,clinic,Kathmandu,27.5121552706701,83.454050688682,Private,2,Standard,1,"General Medicine, Infectious Disease, Gastroenterology",1206,False,0,3.6,False,True,
Birat Aushadi,clinic,Pokhara,,,Private,2,Budget,0,"Dermatology, Infectious Disease",416,False,0,3.1,False,False,
भटकटिया स्वास्थ्य चौकी,clinic,Nepalgunj,29.2025993977936,81.409456567966,Private,2,Standard,1,"General Medicine, Dermatology, Infectious Disease",1480,False,0,4.2,True,True,
City Top Polyclinic and Medical Center,clinic,Gorkha,,,Private,2,Budget,0,"Infectious Disease, Dermatology",238,False,0,2.5,True,True,
Shah Hospital Pvt Ltd,hospital,Kathmandu,27.0174369890014,84.8752822512886,Private,2,Standard,1,"Dermatology, Urology, Orthopedics, Endocrinology",1439,True,127,3.8,True,True,
Skin And Laser Centre,clinic,Pokhara,28.2179494879014,83.9866571843518,Private,2,Standard,1,Gastroenterology,755,False,0,3.7,True,False,
"Community Health Post, Hajminiya Pathai",clinic,Butwal,26.7851504798202,85.3082274991302,Private,2,Budget,0,"Infectious Disease, General Medicine, Dermatology",300,True,0,3.4,False,True,
Naule Katuwa Health Post,hospital,Kaski,28.8293652355986,81.5800676924919,Private,2,Premium,2,"Infectious Disease, Pulmonology, Neurology, Gastroenterology, Cardiology, Orthopedics",1336,True,319,4.9,True,True,
Sahara Hospital & Physiotherapy Rehabilitation Center,hospital,Bhaktapur,,,Private,2,Premium,2,"General Medicine, Infectious Disease, Urology, General Surgery, Pulmonology, Dermatology",1674,True,298,4.2,True,True,
Visionhome,doctors,Kathmandu,27.6711675175846,85.3161477270769,Private,2,Budget,0,General Medicine,359,False,0,2.6,True,False,
Khockhorka Basic Health Center,clinic,Makwanpur,27.5204712920847,86.7701079393671,Private,2,Standard,1,Dermatology,564,False,0,3.8,False,False,
Dhanubase Health Post,hospital,Nepalgunj,27.9934630939945,83.8022173445131,Private,2,Premium,2,"Pulmonology, Urology, Infectious Disease, Cardiology, Endocrinology, General Surgery",2282,True,375,3.5,False,True,
Yadunath Clinic,clinic,Pokhara,28.2402795485079,83.7420636943791,Private,2,Budget,0,Gastroenterology,520,True,0,2.9,False,True,
Nawadeu Health Post,clinic,Rupandehi,29.629981660318,80.7374716791944,Private,2,Budget,0,"Gastroenterology, Infectious Disease, General Medicine",249,False,0,3.4,False,True,
Sonaul Health Post,clinic,Kathmandu,26.7580203547234,85.7589721374558,Private,2,Standard,1,"Gastroenterology, Dermatology",528,False,0,3.6,True,False,
Rodidewal Health Post,clinic,Banke,29.476329724302,80.3522567598793,Private,2,Standard,1,"General Medicine, Gastroenterology",991,False,0,3.6,False,True,
Jamuwad health post,hospital,Bardiya,27.5305690546569,83.6731261449953,Private,2,Premium,2,"Infectious Disease, Dermatology, Urology, Endocrinology, Orthopedics, Cardiology",1884,True,414,4.4,True,True,
Nepalgunj Eye Hospital,hospital,Lalitpur,28.052194251341,81.6160056890816,Private,2,Premium,2,"Endocrinology, Orthopedics, Dermatology, Urology, Pulmonology, Gastroenterology",2654,True,353,5.0,True,True,
Bastipur Swasta Chauki,clinic,Butwal,26.748233728397,86.4571914611512,Private,2,Budget,0,General Medicine,212,False,0,2.8,False,False,
Latikanda Community Health Unit,clinic,Bhaktapur,28.8430102195938,81.4171912205765,Private,2,Budget,0,"Gastroenterology, General Medicine",503,False,0,3.0,False,False,
Medical Clinic,clinic,Kathmandu,27.7000537352153,85.3218657776028,Private,2,Standard,1,"Gastroenterology, General Medicine, Infectious Disease",1316,True,0,3.4,False,True,
Ujyaalo Samudaayik Polyclinic Pvt. Ltd,clinic,Myagdi,27.0325406756059,87.3131785705967,Private,2,Standard,1,"General Medicine, Infectious Disease",1141,False,0,3.4,False,True,
Allu Sawat Chowki,clinic,Hetauda,27.0265159312428,84.8400268768934,Private,2,Standard,1,Gastroenterology,1457,False,0,3.3,False,False,
Badakholi Basic Health Care Center,hospital,Kathmandu,28.4007469776323,81.8376266455696,Private,2,Premium,2,"General Medicine, Urology, Orthopedics, General Surgery, Pulmonology, Endocrinology",1684,True,413,4.0,True,True,
PHC Launiya,clinic,Pokhara,26.4805599974837,86.7697105533376,Private,2,Standard,1,"Infectious Disease, General Medicine, Gastroenterology",1360,False,0,3.3,False,True,
Budhha Polyclinic,clinic,Gorkha,27.6619417243996,83.0403444231946,Private,2,Standard,1,"Infectious Disease, Dermatology, Gastroenterology",756,False,0,3.0,False,True,
Saijol Health Post,hospital,Nepalgunj,,,Private,2,Standard,1,"Orthopedics, Pulmonology, General Medicine, Neurology",753,True,111,3.3,True,False,
Kushma Health Post-Kushma,hospital,Dang,27.470151877487,83.6862639400294,Private,2,Premium,2,"Neurology, Gastroenterology, General Surgery, Endocrinology, Dermatology, General Medicine",1220,False,400,4.5,True,True,
Raniswara health post,clinic,Rupandehi,27.9822715768772,84.63694886952,Private,2,Budget,0,"Gastroenterology, General Medicine, Infectious Disease",442,False,0,3.1,False,False,
Gajahada health post,hospital,Dolpa,27.6630668272625,83.1711577685385,Private,2,Standard,1,"Infectious Disease, Endocrinology, Pulmonology, Neurology",744,True,164,3.0,True,False,
Bhamchaur Health Post,hospital,Itahari,29.5470955344061,80.9342942722294,Private,2,Standard,1,"Dermatology, Cardiology, General Medicine, Gastroenterology",1481,False,57,4.0,False,False,
माेदि प्याथाेलाेजि क्लिनिक,clinic,Myagdi,28.2720912179843,83.7393449402657,Private,2,Standard,1,General Medicine,848,False,0,3.4,False,True,9844759785
Dhapasi Health Post,doctors,Tanahu,,,Government,0,Budget,0,General Medicine,127,False,0,3.3,False,True,
Gautam Medical Hall,clinic,Chitwan,28.0617735932019,81.6175629628722,Private,2,Budget,0,"Gastroenterology, Infectious Disease, General Medicine",370,False,0,3.4,False,False,081526642
Raj Laxmi Relief Hospital Pvt Ltd,hospital,Dhanusha,27.0286063778943,85.0018004579893,Private,2,Standard,1,"Cardiology, Pulmonology, Neurology, Endocrinology",1032,False,149,3.7,True,False,
आखा अस्पताल,hospital,Hetauda,28.0394594582114,81.6125142911337,Private,2,Standard,1,"Dermatology, General Surgery, Orthopedics, Gastroenterology",1313,True,171,4.1,True,True,
Nepal  Heart Care Center,doctors,Syangja,,,Private,2,Budget,0,General Medicine,321,True,0,2.7,False,False,
राप्ती आँखा अस्पताल,hospital,Hetauda,28.1646187907696,82.316237843005,Private,2,Premium,2,"General Surgery, Cardiology, Gastroenterology, General Medicine, Endocrinology, Orthopedics",2932,True,111,4.8,True,True,
Basic Health Care Center Ward 4,clinic,Tanahu,26.7252198721296,85.9278219726679,Private,2,Budget,0,"Dermatology, Infectious Disease, Gastroenterology",237,False,0,3.3,False,False,
Health Post Kurtha,clinic,Sarlahi,26.7578008326792,85.895639152519,Private,2,Budget,0,"Infectious Disease, General Medicine",597,False,0,2.5,True,True,
Shitalpur Health Care Center,clinic,Nepalgunj,26.9547584581744,85.1968220314894,Private,2,Standard,1,"Infectious Disease, General Medicine, Dermatology",1114,False,0,3.6,False,False,
Sanvi Pharm,clinic,Pokhara,27.5162312225454,83.4524886372066,Private,2,Budget,0,"Infectious Disease, Gastroenterology",517,False,0,2.7,False,True,
RAPTI EYE HOSPITAL,hospital,Pokhara,,,Private,2,Premium,2,"Pulmonology, Dermatology, Endocrinology, Infectious Disease, Orthopedics, General Medicine",1898,True,281,5.0,True,True,
दिव्या संजीवनी अस्पताल,hospital,Kathmandu,27.7066148375625,85.2867622832931,Private,2,Premium,2,"Pulmonology, Urology, General Medicine, Neurology, Dermatology, Infectious Disease",2564,True,279,3.6,True,True,
Vivanta Zahnklinik,clinic,Kathmandu,27.7092352719516,85.3301506183376,Private,2,Standard,1,Infectious Disease,597,False,0,3.2,False,True,
"TB Nepal, Nepalgunj Tuberculosis Referal Center",hospital,Morang,28.0610350637133,81.6321362426439,Government,0,Standard,1,"Gastroenterology, Dermatology, Endocrinology, Orthopedics",328,True,72,3.4,True,True,81524267
PHC Tilathi,clinic,Banke,26.4709025362853,86.7672244808563,Private,2,Standard,1,Gastroenterology,1092,True,0,3.1,False,True,
Ramechhap District Hospital,hospital,Hetauda,27.3157800198075,86.0870839164779,Private,2,Standard,1,"Cardiology, General Surgery, Dermatology, Urology",627,False,103,3.9,True,False,
Health Post Ward 7,clinic,Kaski,26.7950931771837,86.1782504407159,Private,2,Standard,1,Gastroenterology,587,False,0,3.1,True,False,
"स्वास्थ्य चाैकि गैरिगाउँ, राेल्पा",clinic,Biratnagar,28.3236047185081,82.5041974954433,Private,2,Budget,0,"Gastroenterology, Infectious Disease",231,False,0,2.5,False,False,
Summit Hospital,hospital,Kathmandu,,,Private,2,Premium,2,"General Medicine, Orthopedics, Dermatology, Gastroenterology, Urology, Neurology",2877,False,129,5.0,True,True,
खिदिम स्वास्थ चौकी,hospital,Biratnagar,27.9144999502249,83.2908899864299,Private,2,Premium,2,"Infectious Disease, Urology, Neurology, General Surgery, Endocrinology, General Medicine",1068,True,242,4.5,True,True,
Kayakalpa Diet Clinic,clinic,Pokhara,28.221463768445,83.9881068345057,Private,2,Budget,0,"General Medicine, Dermatology",393,True,0,2.7,False,False,
Surajpura Aayurbedic Ausadhalaya,clinic,Biratnagar,27.6223806501631,83.3158823909414,Private,2,Standard,1,Infectious Disease,820,False,0,3.3,False,False,
Chandrawati Medical,hospital,Birgunj,28.070518851878,84.3713273637797,Private,2,Premium,2,"Urology, General Medicine, Endocrinology, Infectious Disease, Pulmonology, Gastroenterology",2822,True,303,4.2,True,True,
Harine Health Service Center,clinic,Hetauda,26.7312523278436,86.1442520165206,Private,2,Budget,0,"Dermatology, Gastroenterology",555,False,0,3.4,False,True,
गाउँघर क्लिनिक,clinic,Lalitpur,28.3601130197897,82.6205825679405,Private,2,Standard,1,Gastroenterology,566,True,0,3.8,True,True,
साई पोलिक्लिनिक,doctors,Kathmandu,27.6889045467091,85.3314271821909,Private,2,Budget,0,General Medicine,600,False,0,3.3,False,True,
Nijon Skin Hospital,hospital,Pokhara,26.6604094880494,87.6923129220737,Private,2,Premium,2,"Urology, General Surgery, Endocrinology, Cardiology, Infectious Disease, Orthopedics",1261,True,223,3.6,True,False,
Ganeshpur Swsthy Chauki Vijaynagar-07 Ganeshpur,clinic,Makwanpur,27.5685004354593,82.7833938286493,Private,2,Budget,0,"Dermatology, Gastroenterology",231,False,0,3.3,False,False,
"Health Post, Harpur",clinic,Makwanpur,27.0837134517656,84.9692992931579,Private,2,Budget,0,"Infectious Disease, Dermatology",426,False,0,2.7,False,False,
guthiparsauni aaurberd aausadhalay,hospital,Kathmandu,27.3996505164282,83.8094329896791,Private,2,Premium,2,"Orthopedics, Gastroenterology, Infectious Disease, General Surgery, Dermatology, Neurology",1112,True,225,3.7,True,True,
भेडामारा उप स्वास्थ चौकी,hospital,Butwal,27.8376788856303,83.0703353756637,Private,2,Premium,2,"Cardiology, Gastroenterology, Neurology, General Surgery, General Medicine, Dermatology",1617,True,287,4.5,True,True,
"Aadharbhut Swasthya Sewa Kendra, Basa Dada",clinic,Hetauda,28.3829002293953,82.8768597603849,Private,2,Standard,1,Dermatology,1125,False,0,3.8,False,True,
रौनियार मेडिकल,clinic,Butwal,28.1289269706762,82.2965453996891,Private,2,Budget,0,"General Medicine, Infectious Disease",520,False,0,3.4,False,False,
Luvu Polyoclinic,clinic,Kathmandu,27.642477185031,85.3759843736329,Private,2,Standard,1,"General Medicine, Dermatology",942,True,0,4.1,True,True,
Shrestha Clinic,clinic,Bhaktapur,,,Private,2,Standard,1,"General Medicine, Dermatology",567,False,0,3.1,False,True,
Budhhabasti Basic Health Care Center,clinic,Butwal,28.6231294300236,80.483236066906,Private,2,Standard,1,"Gastroenterology, Infectious Disease",604,True,0,3.8,False,False,
Mantra Hospital,hospital,Baglung,,,Private,2,Premium,2,"Cardiology, General Medicine, Pulmonology, Urology, Orthopedics, Neurology",2387,True,202,3.6,True,True,
Pelka Chaur BHCC,clinic,Itahari,28.05307124987,83.8413503549544,Private,2,Budget,0,"Gastroenterology, Dermatology, Infectious Disease",228,False,0,2.7,False,False,
Nawa Buddha,hospital,Makwanpur,,,Private,2,Premium,2,"Neurology, Endocrinology, Urology, Dermatology, Cardiology, Pulmonology",2145,True,116,3.8,True,False,
Innovative Hospitality Services Pvt.Ltd,clinic,Kathmandu,27.6829941315053,85.3426407437136,Private,2,Budget,0,Infectious Disease,226,True,0,2.8,True,False,
Primary Heath Care Center Rampur,clinic,Gorkha,26.7025122906042,85.9363108289259,Private,2,Budget,0,"Infectious Disease, General Medicine, Dermatology",350,False,0,3.4,False,False,
Kamal Health Clinic 1 Parsagadhi MP,clinic,Banke,27.1781863853485,84.8660888960688,Private,2,Budget,0,"General Medicine, Gastroenterology",395,False,0,3.4,False,True,
Adharbhut Health Center,clinic,Dharan,27.6545299426993,86.0717769687215,Private,2,Budget,0,"General Medicine, Infectious Disease",405,False,0,3.0,False,False,
स्वास्थ्य चौकी राङ्कोट,clinic,Kathmandu,28.4932441289991,82.5497817214812,Private,2,Budget,0,Dermatology,249,True,0,3.1,False,False,
Thulu Vaccination Center,clinic,Birgunj,27.4717671540476,86.8028711224916,Private,2,Budget,0,General Medicine,516,False,0,2.9,False,False,
General Hospital and Trauma Care Center,hospital,Biratnagar,26.4537186289512,87.2844096996104,Private,2,Premium,2,"General Surgery, Urology, Endocrinology, Pulmonology, General Medicine, Cardiology",2540,True,233,4.0,True,True,
Korja Community Health Care Unit,clinic,Banke,28.5487231917333,82.6365355927935,Private,2,Budget,0,"Gastroenterology, Infectious Disease, General Medicine",410,False,0,3.3,False,False,
Lamki Chuha Hospital,hospital,Gorkha,28.6380751177533,81.1286777314409,Private,2,Premium,2,"Dermatology, Gastroenterology, Orthopedics, Endocrinology, General Surgery, Neurology",1477,True,477,4.9,True,True,
Gonarpura Swastha Chowki,clinic,Myagdi,26.726369869245,85.805534363956,Private,2,Standard,1,Infectious Disease,1385,False,0,3.0,False,False,
Basic Health Center Yoginiya,clinic,Butwal,26.5198550301134,86.8673205818212,Private,2,Budget,0,"General Medicine, Infectious Disease",506,False,0,2.5,False,False,
मरेङ स्वास्थ्य चौकि,hospital,Sarlahi,28.0503399229019,83.1912899264948,Private,2,Premium,2,"Pulmonology, Gastroenterology, Orthopedics, Infectious Disease, Dermatology, General Surgery",2612,True,476,4.1,True,True,
Pancham Aayurbed Clinic,clinic,Pokhara,28.2062033402512,83.9932172808706,Private,2,Standard,1,"General Medicine, Infectious Disease, Dermatology",1175,False,0,3.9,False,True,
Swasthya Chauki Gaam,clinic,Hetauda,28.3639583855086,82.8583297194011,Private,2,Budget,0,"Dermatology, General Medicine, Infectious Disease",519,False,0,3.1,False,False,
Alive Health Clinic Pvt.Ltd,clinic,Kathmandu,27.6764665567709,85.3464490614204,Private,2,Budget,0,"General Medicine, Dermatology",205,False,0,3.1,False,False,
HTC Centre,hospital,Chitwan,28.1052994752774,83.8738553754613,Private,2,Standard,1,"Neurology, Dermatology, Pulmonology, Orthopedics",964,True,199,3.2,True,False,
Setidobhan BHCC,clinic,Pokhara,28.1577671716585,83.8167504749686,Private,2,Standard,1,General Medicine,893,False,0,3.3,True,False,
कुची स्वास्थ्य चौकी,hospital,Pokhara,29.0569945917385,81.4137435761631,Private,2,Standard,1,"Endocrinology, General Surgery, Cardiology, Urology",975,True,69,3.8,True,False,
जिल्ला अस्पताल रौतहट,hospital,Butwal,26.7650319843661,85.2740256461448,Private,2,Standard,1,"Cardiology, Gastroenterology, General Surgery, Neurology",1314,False,178,4.0,True,True,
Gamaudi Sub Health Post,hospital,Kathmandu,28.8345999855875,81.6427229216281,Private,2,Premium,2,"Dermatology, Gastroenterology, General Medicine, Pulmonology, General Surgery, Infectious Disease",1876,True,141,3.7,True,True,9864943752
Majhgau gaughar Clinic,clinic,Birgunj,28.7912689827608,80.6225468180492,Private,2,Standard,1,Dermatology,1401,False,0,3.4,False,False,
Banauli Danauli BHCC,clinic,Sunsari,26.684078976783,85.8873500370136,Private,2,Standard,1,Gastroenterology,1135,False,0,3.0,False,True,
Radhe Radhe  Pharmacy & Pathology lab,clinic,Kathmandu,27.6774091856018,85.3982289388271,Private,2,Standard,1,"Dermatology, General Medicine, Infectious Disease",1134,True,0,3.2,False,False,
Nepal Anti Tuberclosis Association (NATA) MORANG,hospital,Biratnagar,26.4589523731117,87.2845690395897,Private,2,Premium,2,"Endocrinology, Pulmonology, General Surgery, Infectious Disease, Dermatology, Neurology",1207,True,449,3.7,False,False,
"Urban Health Centre, Khoria",clinic,Butwal,26.7926145645962,87.3018344190227,Private,2,Budget,0,"Infectious Disease, General Medicine",373,False,0,2.8,False,False,
Biruwa Swastha Clinic,clinic,Kathmandu,27.6649656636075,85.3668942834603,Private,2,Budget,0,"Dermatology, Gastroenterology",533,False,0,2.7,False,True,
कोर्चाबाङ स्वास्थय चौकी,clinic,Lalitpur,28.3720015759748,82.5377120323685,Private,2,Budget,0,"Dermatology, General Medicine",545,False,0,3.0,True,True,
ktm metropolitan community city health clinic,clinic,Nepalgunj,,,Community/NGO,1,Budget,0,"Dermatology, Gastroenterology",600,False,0,2.9,False,False,
Aadharbhut Health Center,clinic,Lalitpur,27.0520934764149,85.6387252707096,Private,2,Budget,0,"Dermatology, Gastroenterology",213,True,0,3.1,False,False,
आधारभूत स्वास्थ्य केन्द्र भुलु,clinic,Kaski,28.8591784917203,81.5049285405881,Private,2,Standard,1,"Gastroenterology, Dermatology, General Medicine",964,False,0,3.8,True,False,
MHP Bajkateri SHP,hospital,Kathmandu,28.1978269691337,83.0685369545187,Private,2,Premium,2,"Cardiology, Pulmonology, Infectious Disease, Endocrinology, General Medicine, Orthopedics",2059,True,483,4.3,True,True,
Sk Cecil Nursing Home,hospital,Dharan,27.0282821658795,85.0094985655019,Private,2,Premium,2,"Gastroenterology, Infectious Disease, General Surgery, General Medicine, Dermatology, Endocrinology",1672,True,318,4.3,False,True,
